"venue_id","venue_lat","venue_lon","venue_name","venue_city","all_event_ids"
577837,37.679024,-122.12767,"Time is the DEPARTURE time from Carpool location: San Lorenzo. Please arrive early.","San Lorenzo","74538282"
1424841,37.676783,-122.142392,"Fresh Pizza","San Lorenzo","16460086|56442952"
1493158,37.69503,-122.11731,"Ashland Little League","San Lorenzo","16392532"
1547821,37.676785,-122.142395,"Fresh Pizza Restaurant","San Lorenzo","16801453|56442752"
3008441,37.681042,-122.124413,"San Lorenzo","San Lorenzo","29351511"
5543822,37.686958,-122.129776,"Starbucks","San Lorenzo","51166702"
