"venue_id","venue_lat","venue_lon","venue_name","venue_city","all_event_ids"
403251,32.789436,-97.24286,"Haltom City R&P Club","Haltom City","6563847"
1165799,32.841435,-97.285328,"Amesbury Court Apartments Community Center (located to the right of the front office)","Haltom City","13088526|13233851|13516278|13733141|14521411"
1223243,32.83171,-97.265196,"Mochi Sushi and Grill","Haltom City","15874745"
1391531,32.849317,-97.284701,"Buffalo Ridge Park","Haltom City","85344382"
7320892,32.811779,-97.264275,"Oscar's Mexican Restaurant","Haltom City","65810292|65964102"
8390612,32.849232,-97.263519,"Braum's Ice Cream & Dairy Store","Haltom City","74892492"
10799622,32.860382,-97.290131,"Starbucks","Haltom City","95978532"
11871142,32.842133,-97.264198,"North Park Disc Golf Course","Haltom City","105810312"
