"venue_id","venue_lat","venue_lon","venue_name","venue_city","all_event_ids"
1000115,38.262298,-122.092408,"Winterhawk Winery","Fairfield","50811812|53152462|61125702"
1039993,38.249222,-122.044249,"Pepper Belly's Comedy Theater","Fairfield","17303431|30162931"
1622386,38.236362,-122.091866,"Anheuser-Busch Co","Fairfield","56925162"
2797571,38.264236,-122.126915,"Wild Boar Farms","Fairfield","27558171"
10217042,38.259644,-122.05896,"Panera","Fairfield","90484712"
11209762,38.236225,-122.083206,"Sepay Groves","Fairfield","100022162"
