"venue_id","venue_lat","venue_lon","venue_name","venue_city","all_event_ids"
177173,32.540325,-96.80538,"Reindeer Manor","Red Oak","50190462|14287380|30819111|35899022|84295772|87010262"
388117,32.51717,-96.812294,"Red Oak City Park","Red Oak","11400352"
871207,32.530975,-96.807259,"Remax","Red Oak","9681995"
1160862,32.517638,-96.804442,"Denny's","Red Oak","dhsvhcyqgbnb|dhsvhcyqkbnb|dhsvhcyqlbsb|dwjvkdyqnbmb|dwjvkdyqpbrb|dwjvkdyqqbpb|dwjvkdyrcblb|dwjvkdyrdbqb|dwjvkdyrgbmb"
3007671,32.510272,-96.80584,"342 Grill and Bar","Red Oak","dhsvhcypqbrb|dhsvhcyqcbnb|dhsvhcyqdbsb|dhsvhcyqfbrb|dhsvhcyqhblb|101199122"
7579132,32.515545,-96.80146,"THE RED DOOR BOTIQUE","Red Oak","dhsvhcyqmbpb"
