"venue_id","venue_lat","venue_lon","venue_name","venue_city","all_event_ids"
214827,37.474109,-122.278413,"Edgewood Park & Preserve","Redwood City","11104362|12654335|16594454|43193962|49081522|50306782|53012022|58286602|62022942|66819072|70194022|82881182|lwxmqypfbrb|14277594|97906752"
236745,37.490002,-122.199997,"Little Fox","Redwood City","5518485"
253273,37.48606,-122.22628,"Odd Fellows Hall","Redwood City","11644732|8142702|8142728|14314089|14314096|37255342|37255552|65312412|dtnswcyqkbcc|65312812|dtnswcyqkbdc|73345742"
266142,37.54241,-122.231926,"Shore Dogs Park","Redwood City","5685180|6166274|8754046|12573683|16476964"
267325,37.47244,-122.239975,"Veterans Memorial Center Theater","Redwood City","14314109|37255992"
309500,37.406624,-122.3059,"El Corte de Madera Creek OSP","Redwood City","89754052|93303262|15355722|79038522|86805762"
321968,37.487064,-122.235825,"Estampas Peruanas","Redwood City","6015510|6641791"
329618,37.41151,-122.30625,"El Corte de Madero Creek SP (Skeggs Point Trailhead)","Redwood City","8993780|13717525|14533830|14576684|15881642|16900823|17322801|20943371|24477431|26844411|28441851|33876572|37580872|51708692|93231772|13787986|13957197|14025269|14990572|15380142|15404716|15440589|15547749|15650592|16458198|17177517|29825201|30789781|32230212|34776332|37500392|40046692|41914062|42763732|44354962|45355462|45783492|47222822|djzgkcyqdbpb|55175072|60154232|qrqzcdyqkbjc|qsfdhdyqmbcb|80733342|97354552|103860332"
339821,37.472786,-122.216835,"Redwood Lanes","Redwood City","6102231"
370846,37.473553,-122.30658,"Filoli","Redwood City","6345951|6593481|7320670|7419418|7552126|8026694|5754488|57681922|16252006|60342092"
385206,37.529999,-122.25,"Marlin Park in Redwood Shores","Redwood City","6440851"
387840,37.492973,-122.215096,"Malibu Grand Prix","Redwood City","13535752"
389170,37.490002,-122.199997,"The Little Fox","Redwood City","6469720"
405288,37.490002,-122.199997,"Century 20 Downtown","Redwood City","6577011"
430831,37.486595,-122.22713,"Amelia's Mexican Restaurant","Redwood City","6745459|7481666|7612194"
438603,37.490002,-122.199997,"Angelica's Bistro","Redwood City","6784388"
443092,37.490002,-122.199997,"Alameda De Las Pulgas","Redwood City","6778246"
452447,37.484142,-122.22613,"Milagro","Redwood City","16963925|21865241"
458491,37.48659,-122.227234,"Savvy Cellar","Redwood City","6948066|7928346"
523583,37.484314,-122.22732,"Redwood City Library","Redwood City","36158342|13504848|47150412|52889442|33878892|qdxgpdyqnbrb|qdxgpdyqnbbc|qdxgpdyqnbkc|qdxgpdyqpbfb|qdxgpdyqpbnb|qdxgpdyqpbwb|qdxgpdyqpbgc|qdxgpdyqqbcb|qdxgpdyqqblb|qdxgpdyqqbtb|qdxgpdyqqbdc|qdxgpdyqqbmc|qdxgpdyrcbhb"
543189,37.495857,-122.23018,"Century Park 12 Theater","Redwood City","7526776"
570791,37.49,-122.2,"Pacific Shores Access Park","Redwood City","7700950|7810672"
580979,37.479465,-122.22699,"Peninsula Habitat RWC","Redwood City","7760168"
587374,37.47244,-122.239975,"Veteran's Memorial Senior Center","Redwood City","7799369"
612023,37.45,-122.27,"Purisima Creek Open Space Preserve","Redwood City","7949976"
614479,37.485947,-122.229614,"Fox Theatre","Redwood City","7965832"
662265,37.48659,-122.227234,"Savvy Cellar Wine Bar & Wine Shop","Redwood City","10236506|10146004|12154522|12519249"
662268,37.485424,-122.225914,"Angelica's Bistro","Redwood City","15497572|17266468|17292520|60570932|91079732|dnzmvdyqpbbc|dnzmvdyqpbkc|dnzmvdyqqbgb|dnzmvdyqqbpb|dnzmvdyqqbxb|dnzmvdyrcbtb|10305749|10576754|16603649|12879335|12879341|13394020|13526513|13675762|13733360|kpqtnynkbkb|kpqtnynkbcc|kpqtnynlbgb|kpqtnynlbxb|14625827|14760986|15003788|15003797|10523058|11575375|14360796|14526862|czmfsyphbjc|czmfsypjbfc|69284162|73918252|77767172|81918332|89105002|91805872|75212172"
681896,37.486517,-122.229167,"Redwood City Courthouse Square","Redwood City","10978897|11234575|11222553|14756022|14755928|10461254|16171533|16397718|14800429|16351637|85064322|13837156|18478121|48218732|77029602|77029942|78349022|79091682|82796322|83662452|13555836|39027102|64031162"
698434,37.485945,-122.229618,"The Little Fox Theatre","Redwood City","9406716|8970816"
709708,37.485905,-122.226265,"Jigsaw Java","Redwood City","8210620|8401724|8770782|9880860|10064109|10474543|10723173|10723147|10913046|11039435|11088046|12039613|12273306|12605453|13352247|13944730|14360669|15684448|24936901|29941741|44772292|9736927"
711276,37.408085,-122.261177,"Wunderlich County Park","Redwood City","7558838|7947163|8091004|21500071|ptzvvypkbcc|64568352|8710531|9180394|11205865|11184041|12739911|19068721|25550641|lgfkqypfbqb|8381900|21105881|dbndtcyqmbtb|25422651|21218911|76760252|40511472|41866492|25816491|58345052|67935462|92217022|93511142|74959392|52168052|86711602|69512172|93630292|105554272|74770742|104896912"
712708,37.48575,-122.22779,"Tarboosh","Redwood City","14914819|11605983"
712964,37.523686,-122.260956,"Redwood Shores Lagoon","Redwood City","8315454|16681077"
722153,37.48576,-122.2286,"Century 20 Redwood City","Redwood City","7019755|9590249|10201718|10847301|11336140|12079003|12166525|12219737|12151046|12200123|12633023|12772873|14165407|14312485|14829139|15005356|15143862|15826666|16116345|35641512|8226083|16334675|16757314|55076922|100118632|103336942|23631611|42349402|86715602|93563112|13162291|13263372|15011656|16258826|99964522|14158878|27606571|17703291|51348262|89822982"
744103,37.472548,-122.25991,"Canyon Inn","Redwood City","8573746"
749615,37.474435,-122.283874,"Pulgas Ridge Open Space Preserve","Redwood City","9933374|11772210|67552252|68133822|78447062|75823652|88799682|14174859|8648934|19439131|26381251|64688462|65093852|68733252|77502822|92181542|99935662|102463352|104440642|27187731|27772311|29064081|36493222|61663752|66688782|93629502|105553642"
750933,37.486505,-122.229445,"Little Fox ","Redwood City","10810259|9797456|10175687|11424688"
760416,37.486517,-122.229167,"Courthouse Square","Redwood City","10461347|10461279|10461288|10461324|10461298|10461327|10461299|10461316|10461318|100283332|14219201|16397969|24233891|33560732|21321471|21356741|25552651|32850042|69509732|78669002"
760462,37.486477,-122.234467,"Redwood City Underground Pub","Redwood City","38254722|43117252|73199492|16666905|16981863|17742821|plrbsypjbtb|plrbsypkbrb|ctcstypmbsb|qsztbcypnbqb|qsztbcyppbmb|38000342|dbbpdcypqbkb|qjwjgcypqbsb|qjwjgcyqcbpb|qhbjjcyqdbcb|qjwjgcyqdblb|qjwjgcyqfbsb|qjwjgcyqgbpb|qjwjgcyqhbmb|qjwjgcyqjbrb|qjwjgcyqkbpb|qjwjgcyqlblb|qjwjgcyqmbqb|qjwjgcyqnbnb|18457201|19590511|19594421|22880521|24258251|27793761|27823811|39666972|39670292|39680682|21346121|25424281|50687042"
767979,37.486517,-122.229147,"Bob's Courthouse Cafe","Redwood City","9793102|13333763"
777029,37.4865,-122.233861,"City Pub","Redwood City","65100722"
786434,37.523086,-122.261031,"Hotel Sofitel ","Redwood City","12356486|13408475|14813962|17579179|16904548|58316202|58317432|12076775|64659702|54429262|62948942|105046872"
790287,37.463809,-122.297948,"Edgewood Road and Canada Road","Redwood City","14137984|39848232|14041644|56364662|82875252|105285372"
792264,37.519832,-122.252035,"Pacific Athletic Club","Redwood City","63454792"
795083,37.457627,-122.227144,"Doc Wong's Chiropractic Office","Redwood City","9679657|10023648|11570090|12081234|9019649|9019438|9019989|9186768|9186811|9186826|9563677|9563692|9563713|9563725|9746651|9921151|9921140|9921179|9926003|9926009|10178910|9926015|9925981|10387704|10387728|10455677|10406417|10455662|10455803|10664384|10708955|10708906|10664410|10866312|10916785|10916855|11133211|11133196|11036593|11188796|11392521|11564620|11564552|11661977|11718660|11679645|11844551|11765404|11892828|11961296|12038673|12127189|12133281|12242525|12301689|12419944|12419854|12690228|12696623|12690147|12573052|13027811|12949754|12949680|13239955|13249691|13249525|13532454|13597782|13609978|13803186|13872479|13872458|13816286|14104166|14147952|14159538|14515574|14515321|14594230|14366850|14832671|14753236|14753109|15222806|15222723|14952859|15461065|15461014|15657684|15742194|15792938|15792893|15742385|15993029|16077842|15798830|16490984|16646226|16646147|16383475|16846325|17014509|17243743|17330462|16675269|17278911|17177722|17579282|18727221|18358481|22176201|22995911|22314511|19423441|24630291|26293291|26421891|26570011|29722221|30598021|30586931|27097601|33374532|34271062|34420562|37828172|28840291|38317092|36975962|35162252|40414002|41384412|41384162"
799642,37.524729,-122.258037,"Stroller Strides - RWS","Redwood City","9045091"
802756,37.499223,-122.223823,"The Waterfront Restaurant","Redwood City","pjfjryphbxb|pjfjryphbhc|pjfjrypjbcb|pjfjrypjblb|pjfjrypjbtb|crpdvypkbjb|crpdvypkbrb|crpdvypkbbc|crpdvypkbkc|crpdvyplbfb|crpdvyplbwb|crpdvyplbgc|crpdvyplbpc|crpdvypmbkb|crpdvypmbsb|crpdvypmbcc|crpdvypnbhb|34341512|crpdvypnbqb|34341652|crpdvypnbzb|34341772|crpdvypnbjc|38179952|crpdvyppbdb|38180082|crpdvyppbmb|crpdvyppbvb|crpdvypqbkb|crpdvypqbsb|crpdvyqcbgb|crpdvyqcbpb|crpdvyqcbhc|crpdvyqdbcb|crpdvyqdblb|crpdvyqdbtb|crpdvyqdbdc|crpdvyqdbmc|crpdvyqfbkb|crpdvyqfbsb|qkjzkcyqfbsb|crpdvyqfbcc|qkjzkcyqfbcc|crpdvyqfblc|qkjzkcyqfblc|crpdvyqgbgb|qkjzkcyqgbgb|crpdvyqgbpb|qkjzkcyqgbpb|crpdvyqgbxb|qkjzkcyqgbxb|crpdvyqgbhc|qkjzkcyqgbhc|crpdvyqhbdb|qkjzkcyqhbdb|crpdvyqhbmb|qkjzkcyqhbmb|crpdvyqhbvb|qkjzkcyqhbvb|qznlvcyqhbvb|crpdvyqhbfc|qkjzkcyqhbfc|qznlvcyqhbfc|qznlvcyqhbnc|62872202|crpdvyqjbjb|qkjzkcyqjbjb|qznlvcyqjbjb|crpdvyqjbrb|qkjzkcyqjbrb|qznlvcyqjbrb|qznlvcyqjbbc|qkjzkcyqjbkc|qznlvcyqjbkc|qkjzkcyqkbgb|qznlvcyqkbgb|crpdvyqkbpb|qkjzkcyqkbpb|qznlvcyqkbpb|crpdvyqkbxb|qkjzkcyqkbxb|qznlvcyqkbxb|crpdvyqkbhc|qkjzkcyqkbhc|qznlvcyqkbhc|crpdvyqlbcb|qkjzkcyqlbcb|qznlvcyqlbcb|crpdvyqlblb|qkjzkcyqlblb|qznlvcyqlblb|crpdvyqlbtb|qkjzkcyqlbtb|qznlvcyqlbtb|crpdvyqlbdc|qkjzkcyqlbdc|qznlvcyqlbdc|crpdvyqlbmc|qkjzkcyqlbmc|qznlvcyqlbmc|crpdvyqmbhb|qkjzkcyqmbhb|qznlvcyqmbhb|crpdvyqmbqb|qkjzkcyqmbqb|qznlvcyqmbqb|qznlvcyqmbjc|qznlvcyqnbfb|qznlvcyqnbnb|qznlvcyqnbwb|qznlvcyqnbgc|qznlvcyqnbpc|qznlvcyqpbkb|qznlvcyqpbsb|qznlvcyqpblc"
803169,37.487063,-122.231459,"Murph's Broadway Cocktail Lounge","Redwood City","19958361"
821277,37.514355,-122.200469,"Pacific Shores Business Center","Redwood City","9198817|10274737|10274838|10785214|10785274|11266117|11711975|12084049|12552358|12084054|13278514|14209564|14583548|17369333|20764021|24992231|24997561|99634252|101909942|102881152|103606502|105283482"
844648,37.480847,-122.224156,"Redwood Roller Rink","Redwood City","9342070|11483442|15795074|69260112|13906432|72375062|86606912|87746232|88126182|86991842|86989442|104836922"
853067,37.48694,-122.235317,"Sodini's","Redwood City","95632772"
856873,37.486006,-122.239248,"The Fox Theatre","Redwood City","9559496|9572191"
857053,37.486008,-122.23925,"Gourmet Haus Staudt Biergarten","Redwood City","9561216|11235646|14788998|17256839|78898002|32529462|82262822"
864577,37.489705,-122.224837,"Starbucks","Redwood City","9724862"
880385,37.483826,-122.224108,"Peninsula Christian Center","Redwood City","9760538"
886757,37.485809,-122.229309,"La Tartine","Redwood City","12054395|12050501|10584310|12241903|12551794"
887819,37.486269,-122.233588,"Natalies Salon","Redwood City","23715041"
889945,37.484612,-122.227844,"Redwood City Council Chambers","Redwood City","9841720|9933950|10036957|10168097|10391765|10502378|10607810|10710582|11324423|11324442|11324448|11324459|11324467|11324476|12221500|12221619|12558743|12674632|12674515|12740743|12740773|13221847|15905983|16014554|16641324"
892552,37.491502,-122.241598,"Stacks","Redwood City","12019316"
901458,37.469427,-122.209915,"Grove of the Bay Secret Grove","Redwood City","9937525"
912905,37.502132,-122.37101,"Hwy 35 & Hwy 92","Redwood City","89864612"
914920,37.482009,-122.230077,"Taqueria El Grullense","Redwood City","9474841"
920797,37.504532,-122.217595,"Marine Science Institute","Redwood City","59752842"
923613,37.502753,-122.211331,"Bella/Arrivederci Italian Seafood","Redwood City","10615200|13796268"
923625,37.51944,-122.252209,"Amici's ","Redwood City","17018911"
924776,37.501289,-122.214789,"Port of Redwood City","Redwood City","10130825|71131052|97633122"
941096,37.486616,-122.226574,"Redwood City Eckankar Center","Redwood City","10260433|10520388|10557307|10844860|10845325|10845344|11049751|11128098|11234830|11360735|11234849|11758495|11758503|12018533|12148662|12324994|12799204|12799208|12861053|13154943|13155069|13154963|13154984|13931926|14190314|14156138|14190272|wjjgpynmbgc|14190194|14749688|15218160|15218138|15218180|15564888|15440194|hbnfqypcbsb|cbnfqypdbhb|hbnfqypdbpb|cbnfqypdbjc|hbnfqypfbpb|cbnfqypfbzb|hbnfqypgblb|kwlvqyphbrb|ndvzqyphblc|kwlvqypjbnb|ndvzqypjbxb|kwlvqypkblb|ndvzqypkbmb|ndvzqypkbnc|kwlvqyplbqb|kwlvqypmbmb|34026062|34026182|kwlvqypnbsb|34026222|kwlvqyppbpb|34026302|57243072|57242222|60565002|63195312|63195472|63195552|63195742|66755472|qkwkbdyqkbjb|72310172|qrtqcdyqkbpb|72377232|73478802|72377772|qrtqcdyqkbhc|72377462|73478962|qkwkbdyqlbfb|73480062|qrtqcdyqlblb|73479142|73479672|qrtqcdyqlbdc|73479322|qkwkbdyqmbkb|73480282|73480932|73480362|qcglndyqnbfb|qkwkbdyqnbhb|84860702|dkglndyqnbnb|qqglndyqnbsb|qcglndyqnbwb|dkglndyqnbgc|qcglndyqnbpc|qkwkbdyqpbdb|dnfrsdyqpbkb|qqglndyqpbpb|qqfrsdyqpbsb|89758432|dnfrsdyqpbcc|qqfrsdyqpblc|89758512|dnfrsdyqqbhb|qkwkbdyqqbkb|qqglndyqqbmb|qqfrsdyqqbqb|dnfrsdyqqbzb|qqfrsdyqqbjc|qkwkbdyrcbgb|qqglndyrcbrb|qmjpdfyrcbvb|qmlzdfyrcbfc|101781702|qmjpdfyrcbnc|qkwkbdyrdbcb|101523182|qmlzdfyrdbjb|qqglndyrdbnb|qmjpdfyrdbrb|qmlzdfyrdbbc|104199362|qmjpdfyrdbkc|qkwkbdyrfbcb"
944071,37.46358,-122.225417,"5th Quarter Pizza","Redwood City","9760831|10283683"
946357,37.494795,-122.229757,"Pennisula Harley","Redwood City","11940960|10023684|11455992"
948722,37.463444,-122.225677,"Photo Studio","Redwood City","17401181|17533337|17571912|17548674|18771401|18881991"
964564,40.434279,-123.987038,"Stafford Park","Redwood City","10460034"
970326,37.489671,-122.223396,"Applebee's","Redwood City","97575032"
971208,37.490458,-122.228374,"Old Port Lobster Shack","Redwood City","10468017|12049351|11115331|15924998"
971908,37.483999,-122.211922,"Rebuilding Together Peninsula Warehouse","Redwood City","10523202|16544129|17313573|52828482"
981167,37.528677,-122.24779,"Marlin Park","Redwood City","10665696|10699382|10758369|11136961|12564724|15543869|16173689"
983447,37.486268,-122.2336,"Gourmet Haus Staudt","Redwood City","101729792"
988556,37.484758,-122.241951,"Sharada's Studio/Home","Redwood City","34349152"
989905,37.5028,-122.211555,"Spinnaker Sailing","Redwood City","61849502"
1000479,37.483845,-122.244343,"Stafford Park","Redwood City","28854421|20242301|81377302|104355262"
1002132,37.536413,-122.245536,"Dolphin Park,","Redwood City","10791171|10791283|10877157|10877171|11019471|11113898|11261283|11313375|11349974"
1013388,37.532716,-122.256898,"Redwood Shores Library","Redwood City","10891086|10947626|11030193|11075132|11069045|11068764|11194098|11249768|11307988|11250199|11549851|11757691|12039245|11500936|12493928|dwxmqypfbfb|dwxmqypfbnb|dwxmqypfbwb|12655360|12762601|13325799|13325854|13787037|13957331|13957364|14939515|14939575|16201537|16201673|16201735|17505034|17505058|27532761|27533171|39375412|39375492|39375602|54231072|54231142|67608572|67608722|67608892|83171602|83171862|83172072|83172292|qklfncyqfbxb|58861412|qklfncyqgblb|qklfncyqhbbc|64354752|67384252|qklfncyqjbwb|70906042|72400052|73679272|93302572"
1045641,37.48437,-122.227379,"Donato Enoteca","Redwood City","11187788"
1049852,37.513473,-122.203468,"Gunderson Dettmer Stough Villeneuve Franklin & Hachigian, LLP ","Redwood City","11315936|11417802|11640123|11855618|12727002"
1053170,37.504146,-122.212191,"Bella by the Bay","Redwood City","14539573"
1061806,37.523086,-122.261031,"Sofitel Hotel - Conference Center","Redwood City","11339811"
1070546,37.521574,-122.252735,"Montgomery Theater - Downtown San Jose","Redwood City","20733541"
1085083,37.493493,-122.228949,"Family Chiropractic","Redwood City","63812322"
1114662,37.473542,-122.306597,"Canada College","Redwood City","11578890"
1116604,37.485695,-122.225891,"Deseo Tequila Lounge & Restaurant","Redwood City","21131081|nrprpynpbfb|nrprpynpbnb|15480311|15480344|50602232"
1147073,37.534805,-122.239464,"Private Home","Redwood City","12456914|12586653|12798495|13041181|13208519"
1153773,37.483656,-122.226538,"Alana's Cafe","Redwood City","64995412|36492232|63166622|54573762"
1155793,37.481398,-122.209301,"La Honda Winery ","Redwood City","16614594|104361722|90395552|86987162"
1162923,37.527238,-122.228517,"Redwood Shores Library","Redwood City","13315022|83620102|35464282|87414892|91382192|35560532|qdxgpdyrcbqb|qdxgpdyrcbrb|qdxgpdyrcbbc|qdxgpdyrcbkc|qdxgpdyrdbfb|qdxgpdyrdbnb|qdxgpdyrdbwb|qdxgpdyrdbgc"
1182527,37.486251,-122.234273,"Crouching Tiger Restaurant","Redwood City","12525583"
1184005,37.485502,-122.226076,"Angelica's Bistro | Bell Theatre ","Redwood City","17470661|17515686"
1186513,37.410954,-122.30591,"Skeggs","Redwood City","95470302"
1189556,37.502712,-122.215195,"Cheasapeake Drive Boat Ramp","Redwood City","14393810"
1193024,37.489514,-122.202983,"Sequoia  High School","Redwood City","12626594"
1193041,37.487209,-122.230636,"San Mateo County Law Library","Redwood City","12626635|13003931|14184042|15660695|47514132|49304232|54435202|58129052|58111352|57255532|57259372|58114362|53429442|54429742|55474852|55475142|55475352|55988272|55988332|55988382|15634864|15660846|48944052|49303372|53314522|53399692|53400142|53986912|53987372|53987702|55224502|55224752|55225072|55225232|55986102|55986182|55986312|56911462|56911622|56913802|56913612|57722782|57723262|57723412|57723892"
1249510,37.466855,-122.285237,"Edgewood Park and Preserve","Redwood City","13681497|42216832|53639412|72854822|98666512"
1252378,37.466225,-122.2246,"Align the Self ","Redwood City","14835689|jhlzpynqbtb|jhlzpypcbzb|hvmlqypfbvb|hvmlqypgbbc|97585622"
1254159,37.481804,-122.184372,"The Hope House","Redwood City","13234062"
1266483,37.463445,-122.22568,"Pet Food Express","Redwood City","14761229|15039722|15208744|jtgtpynpbsb|jtgtpynpbcc|jtgtpynpblc|17221059|17544496|22358901|22359941|22360141|25408301|57570682|58545642|58545752|65660072|65660102"
1285721,37.488902,-122.230657,"County Center","Redwood City","13644440"
1293232,37.485317,-122.227276,"Redwood City Hall Plaza","Redwood City","15043143"
1294586,37.447939,-122.263765,"Canada College  -   Tennis Courts","Redwood City","74273742"
1295534,37.447541,-122.26314,"Canada College","Redwood City","13666413|13814075|13814086|13953914|14134198|14178205|14217401|14341172|14364881|14503224|14503230|14580614|14694010|14808938|14881794|14943728|15063589|15063594|15156121|15287025|15442578|15540406|15909426|15909428|16065029|16327834|16460790|16460792|16460795|16815214|16986998|16987009|17197680|17313185|17313189|17477494|18409951|18551961|19651111|22738531|22739261|22739301|25824461|25824691|25824701|25824861|28718121|29757191|29757251|30532901|31591052|32682352|33171242|34604352|36900492|36900542|37882882|38491542|39266202|40966902|41824652|41824832|42833992|42834092|44386592|48848782|50326352|50326452|54312652|54312712|55840952|56741972|56742022|58968002|58968152|61758802|61758832|61758862|64536122|64536152|66715572|66715602|69630252|69630302|71448642|71448662|71448692|71448712|77633242|83900902|13764705|13810777|13850295|13802787|13928784|13928792|13928870|14098069|14177311|14204512|14393300|14567270|14608056|14737192|14840257|15626364|26004911|26905921|26905791|27770991|27770931|14927280|35639842"
1317167,37.447279,-122.232597,"Hoover Park","Redwood City","14382070"
1323932,37.492864,-122.217429,"Malibu Grand Prix","Redwood City","22471301"
1324685,37.487209,-122.230636,"San Mateo Law Library","Redwood City","14184010"
1337971,37.486369,-122.226839,"Mandaloun Restaurant","Redwood City","14586807|92661242|14293236"
1341504,37.47152,-122.235126,"Red Morton Community Center","Redwood City","22056401|76149422|76987632|75356212|76985182|76990002|dwxsgdyqlbmc|dwxsgdyqmbgb|dwxsgdyqmbpb|dwxsgdyqmbxb|dwxsgdyqmbhc|dwxsgdyqnbdb|87928902|92814512|dwxsgdyqqbpb|dwxsgdyrcbcb|dwxsgdyrcblb|dwxsgdyrcbdc|dwxsgdyrcbmc|dwxsgdyrdbqb|dwxsgdyrfbjc"
1346980,37.450134,-122.338368,"Purisima Creek Redwoods North Ridge Trailhead","Redwood City","14406101|22124061|14824045|16448831|17078475"
1354905,37.501639,-122.214995,"Redwood City Boat Launch","Redwood City","14508722|14745659|14967767"
1358501,37.488783,-122.234326,"840 Wine Bar & Cocktail Lounge","Redwood City","15204944|15043475|16005166|41216842|50811842|97624292|104455552"
1364888,37.399512,-122.293789,"Skeggs Point","Redwood City","78447802|101629062"
1394113,37.488108,-122.23097,"County Supervisor Chambers","Redwood City","13364578|15001230"
1418828,37.486488,-122.229226,"CLUB FOX","Redwood City","70467022|78481132|81001212|81921962|99367752|98662702|102291482|103718742|105443262"
1423640,37.48581,-122.229306,"Cafe La Tartine","Redwood City","15829665|15618282|15617553|16567919|16754773|17045739|17201836|pdjpsypjbsb|pdjpsypjbcc|pdjpsypjblc|pdjpsypkbhb|pdjpsypkbqb|pdjpsypkbzb|pdjpsypkbjc|pdjpsyplbdb|pdjpsyplbmb|pdjpsyplbfc|pdjpsyplbnc|dxkkbcypmbjb|dxkkbcypmbrb|dxkkbcypmbbc|dxkkbcypmbkc|qwrxccypnbpb|qwrxccypnbxb|qnmkfcypnbhc|qnmkfcyppbcb|qnmkfcyppblb|qnmkfcyppbtb|qrhghcyppbmc|qrhghcypqbjb|qpgqkcyqcbnb|qpgqkcyqcbgc|17247392|pjrwsypjbjb|pjrwsypkbgb|pjrwsyplblb|pjrwsypmbhb|pjrwsypnbfb|cznszyppbkb|cznszypqbhb|cznszyqcbdb|cznszyqdbjb|cznszyqfbhb|cznszyqgbdb|cznszyqhbkb|cznszyqjbgb|cznszyqkbdb|cznszyqlbjb|cznszyqpbhb|djgsvdyrcbkb|djgsvdyrfbgb|17556379|81827482|93020072|qwcpcfyrcbnb|qwcpcfyrcbwb|qwcpcfyrcbgc|qwcpcfyrcbpc|qwcpcfyrdbkb|qvmqkfyrdblc|qvmqkfyrfblc|qvmqkfyrgbpb"
1425130,37.484166,-122.232362,"Starbucks Redwood City","Redwood City","16053972"
1436160,37.490181,-122.237465,"Gladiators Boxing Gym","Redwood City","pkzwpynpbkc|15631303|pkzwpynqbxb|pkzwpypcblb|pkzwpypcbtb|pkzwpypcbdc|pkzwpypcbmc"
1453614,37.542808,-122.231183,"Shore Dog Park","Redwood City","51390052|93894722|15793391|27236631"
1481636,37.486606,-122.227191,"The Living Room","Redwood City","98679522|18024461|53260352|87995102|101915672|78131502|63514932|73993002|91526782"
1489231,37.449345,-122.232208,"Woodside Road United Methodist Church","Redwood City","sglhpypdbkb|sglhpypdbsb|sglhpypdbcc|sglhpypdblc|sglhpypfbkb|sglhpypfbsb|sglhpypfbcc|sglhpypgbgb|sglhpypgbpb|sglhpypgbxb|sglhpypgbhc|sglhpyphbdb|sglhpyphbmb|sglhpyphbvb|sglhpyphbfc|sglhpyphbnc|sglhpypjbjb|sglhpypjbrb|sglhpypjbbc|sglhpypjbkc|sglhpypkbgb|sglhpypkbpb|sglhpypkbxb|sglhpypkbhc|sglhpyplbcb|sglhpyplblb|sglhpyplbtb|sglhpyplbdc|sglhpyplbmc|sglhpypmbhb|sglhpypmbqb|sglhpypmbzb|sglhpypnbfb|sglhpypnbnb|sglhpypnbwb|sglhpypnbgc|sglhpypnbpc|sglhpyppbkb|sglhpyppbsb|sglhpyppbcc|sglhpyppblc|sglhpypqbhb|sglhpypqbqb|sglhpypqbzb|sglhpypqbjc|sglhpyqcbdb|sglhpyqcbmb|sglhpyqcbvb|sglhpyqcbfc|sglhpyqcbnc|sglhpyqdbjb|sglhpyqdbrb|sglhpyqdbbc|sglhpyqdbkc|sglhpyqfbhb|sglhpyqfbqb|sglhpyqfbzb|sglhpyqfbjc|sglhpyqgbdb|sglhpyqgbmb|sglhpyqgbvb|sglhpyqgbfc|sglhpyqgbnc|sglhpyqhbkb|sglhpyqhbsb|sglhpyqhbcc|sglhpyqhblc|sglhpyqjbgb|sglhpyqjbpb|sglhpyqjbxb|sglhpyqjbhc|sglhpyqkbdb|sglhpyqkbmb|sglhpyqkbvb|sglhpyqkbfc|sglhpyqkbnc|sglhpyqlbjb|sglhpyqlbbc|sglhpyqlbkc|sglhpyqmbfb|sglhpyqmbnb|sglhpyqmbwb|sglhpyqmbgc|sglhpyqnbcb|sglhpyqnblb|sglhpyqnbtb|sglhpyqnbdc|sglhpyqnbmc|sglhpyqpbhb|sglhpyqpbqb|sglhpyqpbzb|sglhpyqpbjc|sglhpyqqbfb|sglhpyqqbnb|sglhpyqqbwb|sglhpyqqbgc|sglhpyqqbpc|sglhpyrcbkb|sglhpyrcbsb|sglhpyrcbcc|sglhpyrcblc|sglhpyrdbgb|sglhpyrdbpb|sglhpyrdbxb|sglhpyrdbhc"
1493156,37.491371,-122.215744,"Malibu Grand Prix","Redwood City","69606662|75652612"
1524545,37.479866,-122.2453,"Unitarian Universalist Fellowship of Redwood City","Redwood City","16609883|17059838|xjltqypgbkb|xjltqypgbsb|xjltqypgbcc|xjltqypgblc|xjltqyphbhb|pffdryphbqb|pffdryphbzb|pffdryphbjc|pffdrypjbdb|pffdrypjbmb|pffdrypjbvb|pffdrypjbfc|pffdrypjbnc|pffdrypkbkb|pffdrypkbsb|pffdrypkbcc|pffdrypkblc|pffdryplbgb|pffdryplbpb|16460179|pffdryplbxb|pffdryplbhc|pffdrypmbcb|pffdrypmbtb|pffdrypmbdc|pffdrypmbmc|qrlndcypnbjb|qrlndcypnbrb|qrlndcypnbbc|qrlndcypnbkc|58861102"
1525868,37.518681,-122.254074,"Kabam, Inc.","Redwood City","16619277|16836798"
1527516,37.512253,-122.201096,"Pacific Shores Center","Redwood City","16320361"
1533301,37.40422,-122.30105,"El Corte de Madera Creek OSP (Skeggs Point)","Redwood City","djzgkcyqhbzb|33066962|17498519|qmnwvcyqlbhc|dxbdjfyrfbfc|86088872|55312372|105628222"
1560384,37.473892,-122.238136,"Kiwanis Field/Mitchell Field","Redwood City","16904834"
1560406,37.473656,-122.278572,"Edgewood Park & Natural Preserve","Redwood City","98593222"
1567245,37.486,-122.229587,"Fox Theater","Redwood City","wspvqypgbhc|16959809|27532231|17284805|95526042"
1569293,37.454056,-122.238739,"Highlands Community Club","Redwood City","vcqrqypgbcc|vcqrqyphbzb|20235831|vcqrqypjbvb|vcqrqypkbcc|vcqrqyppbwb|vcqrqyqcbzb|vcqrqyqdbvb|vcqrqyqfbtb|vcqrqyqgbzb|vcqrqyqhbwb|vcqrqyqjbcc|vcqrqyqkbzb|vcqrqyqlbvb|vcqrqyqmbbc|vcqrqyqnbxb|vcqrqyqpbtb|vcqrqyrcbwb|vcqrqyrdbcc"
1575892,37.470111,-122.239656,"Red Morton Community Park","Redwood City","vbgsqypfbnc|vbgsqypgbrb|vbgsqypgbkc|vbgsqyphbpb|vbgsqypjblb|vbgsqypjbdc|vbgsqypkbjb|vbgsqyplbfb|vbgsqyplbwb|vbgsqyplbpc|vbgsqypmbsb|vbgsqypmblc|vbgsqypnbqb|vbgsqypnbjc|vbgsqyppbmb|vbgsqyppbfc"
1576816,37.528965,-122.250809,"Playground at Marlin Park","Redwood City","dwxmqypfbpc"
1589517,37.471282,-122.23762,"Red Morton Park","Redwood City","17339362|76376492|76375952|64297342|67409932|69592922|69593482|70400792|71403252|71403482|71842362|75025502|75742822|77251522|79494202|81727372|82430712|82891262|83692212|84304962"
1590839,37.511089,-122.200348,"Sencha","Redwood City","101136762"
1593311,37.519768,-122.251572,"Pacific Athletic Club","Redwood City","62515642|62516982|48487332"
1611794,37.488903,-122.230659,"San Mateo County Office Building","Redwood City","34961292"
1619382,37.525337,-122.25473,"Electronic Arts Headquarters","Redwood City","80557862"
1625738,37.486954,-122.229744,"San Mateo County Historical Association","Redwood City","47374852"
1657341,37.485317,-122.22728,"Century 20 Downtown Redwood City","Redwood City","62830822|72536292|76145262|76038792|76146092|83341852|86648192|93069562|96793652|41077712|41138262|45801152|50772472|53548982|62681532|80692792|90718592|100350972|102863682|103903782|104384562|90586082|93405022|62990052|99342912|101449372|42199782"
1720841,37.488701,-122.230148,"San Mateo County Recorders' Office public area on 1st floor","Redwood City","41395622|18286741|20536971|21517191|21520281|pzwczyplbjc|pzzwxypmbcb|pqbhzypmbdb|28505751|29700311|pzwczypmbfc|ctvnzypmblc|35196712|pzzwxypnbjb|pqbhzypnbkb|30624611|34142212|35199992|ctvnzypnbjc|pzwczypnblc|ctvnzyppbfc|pzwczyppbhc|pzwczypqbfc|ctvnzypqblc|ctvnzyqcbhc|pzwczyqcbkc|ctvnzyqdbdc|pzwczyqdbgc|ctvnzyqgbhc|ctvnzyqjbkc|ctvnzyqkbhc|ctvnzyqlbdc|ctvnzyqmbjc"
1769071,37.486454,-122.229752,"CLUB FOX","Redwood City","18986901"
1780811,37.484432,-122.227432,"Donato","Redwood City","18808181"
1816121,37.458248,-122.229492,"My House","Redwood City","pzttrypjbdb|pnbdtypjbbc|pnbdtypjbcc|pnbdtypjbdc|pwdkvypkbgb|pwdkvypkbrb|cnzfwypkbxb|cpzfwypkbbc|19993071|25564901|plxwwypkbhc|19993271|cpzfwypkbkc|cpncsypkblc|ppncsypkblc|plxwwyplbcb|cpzfwyplbfb|plxwwyplblb|cczgsyplbmb|28716061|cpncsyplbpb|pfxxwyplbtb|plxwwyplbtb|cczgsyplbvb|29144531|pfxxwyplbwb|cpzfwyplbwb|cpncsyplbxb|pfxxwyplbzb|pfxxwyplbdc|plxwwyplbdc|20057141|20057281|pfxxwyplbgc|cpzfwyplbgc|cpncsyplbhc|pfxxwyplbjc|plxwwyplbmc|20057511|pfxxwyplbpc|cpncsypmbcb|cpzfwypmbkb|pfxxwypmbzb|drfrbcypmbbc|dffzscyqhbsb|dkklwcyqhbtb|ddklwcyqhbxb|ddklwcyqhbcc|dlxzwcyqhbfc|dkklwcyqhbgc|dlxzwcyqhbhc"
1821081,37.511692,-122.202599,"Pacific Shores Club","Redwood City","29858031"
1875051,37.484772,-122.241913,"121 Fulton St","Redwood City","34349422"
2099931,37.486225,-122.231079,"Guidewire Group Studio G","Redwood City","21640831"
2256441,37.456837,-122.249191,"Stulsaft Park","Redwood City","66941102|67001072|71839162|qbkgbcypmbjb|qbkgbcypmbbc|qkkvdcypnbqb"
2376991,37.487244,-122.239555,"Insight Meditation Center","Redwood City","45651582|45465062"
2527301,37.485813,-122.226242,"Paul Grant Photography","Redwood City","25326641|27877411|28217761|29462061|29464031|31761472|31777652|35102722|52850302"
2531751,37.485699,-122.21109,"Internet Systems Consortium","Redwood City","24236691"
2571671,37.51202,-122.199783,"Sina Conference Center (North Lobby, 2nd Floor)","Redwood City","25685301"
2673521,37.486362,-122.234413,"RWC UNDERGROUND PUB","Redwood City","40972092"
2794271,37.522118,-122.259995,"King & Spalding LLP","Redwood City","105630492|105728412"
2971991,37.492409,-122.224007,"Edgewood County Park","Redwood City","51977412|67952282"
3042171,37.486523,-122.229134,"Sakura","Redwood City","64679852"
3199251,37.510437,-122.202866,"Serena Software, Inc.","Redwood City","30988271|34794592"
3274172,37.465359,-122.254005,"Fire Station","Redwood City","32025292"
3389992,36.756824,-121.765312,"Pfieffer Big Sur State Park (address is for Big Sur Lodge)","Redwood City","32670932|79353742|60562192|87436142"
3395172,37.485958,-122.229958,"ban.jo","Redwood City","33586302"
3520382,37.485893,-122.23159,"Redwood City Caltrain Station","Redwood City","71871472|57136092|71479132"
3916182,37.464096,-122.245972,"Alameda & Mcgarvey Ave, Redwood City, CA 94061","Redwood City","qkkvdcypnbnb|qkkvdcypnbwb|qkkvdcypnbgc|qkkvdcyppbkb|qcgzscyqgbfc|qcgzscyqgbnc|qcgzscyqhbkb|qcgzscyqhbsb|qcgzscyqhbcc|dfxzwcyqhbhc|qcgzscyqhblc|66668392|dfxzwcyqjbcb|qcgzscyqjbgb|dfhvxcyqjblb|qcgzscyqjbpb|qcgzscyqjbhc|qhtxzcyqjbmc|qcgzscyqkbdb|qhtxzcyqkbjb|qcgzscyqkbvb|qcgzscyqkbfc|qcgzscyqlbjb|qcgzscyqlbbc|qcgzscyqlbkc|qcgzscyqmbfb|qcgzscyqmbnb|qcgzscyqmbwb|qcgzscyqmbgc|qcgzscyqnblb|qcgzscyqnbtb|qcgzscyqnbdc|qcgzscyqnbmc|qcgzscyqpbhb|qcgzscyqpbqb|qcgzscyqpbzb|qcgzscyqpbjc|qcgzscyqqbfb|qcgzscyqqbnb|qcgzscyqqbwb|qcgzscyqqbgc|qcgzscyrcbkb|qcgzscyrcbsb|qcgzscyrcbcc|qcgzscyrcblc|qcgzscyrdbgb|qcgzscyrdbpb|qcgzscyrdbxb|qcgzscyrdbhc"
4128812,37.491997,-122.21418,"Lyngso Garden Materials Inc","Redwood City","59606732|61502432|76221282"
4130422,37.485996,-122.225739,"Martins West","Redwood City","37631042"
4192662,37.485764,-122.2286,"Cinemark Redwood Downtown 20 and XD","Redwood City","39106822"
4195882,37.483204,-122.244781,"Marianna's House","Redwood City","39131292"
4228122,37.485916,-122.230858,"Pizza & Pipes","Redwood City","36828002|dklrkdyqnbgb|dklrkdyqpbcb|qtgcdfyrdbhb|102392352"
4247102,37.483875,-122.227432,"863 main st Redwood City","Redwood City","43185172|42465972|43202892|43203422|43545502|43545832|41881952|43184572|43203462|43338382|43448172|39586372|39716072"
4250192,37.541435,-122.240173,"Rashi's Residence","Redwood City","39608452"
4381282,37.486507,-122.229141,"Redwood City Theatre District","Redwood City","39028442"
4401142,37.485214,-122.236351,"Redwood City Courthouse Square","Redwood City","49578732"
4403382,37.48834,-122.23148,"OpenERP Inc.","Redwood City","dchwgcypqbsb|qlvchcyqcbpb|qlvchcyqdblb|qlvchcyqfbsb|qlvchcyqhbmb|qlvchcyqjbrb|qlvchcyqkbpb|qlvchcyqlblb"
4407752,37.486408,-122.228348,"Old Spaghetti Factory","Redwood City","40923112|104562742|71724132"
4452782,37.481964,-122.231628,"Whole Foods Market","Redwood City","41287352"
4468572,37.518356,-122.249466,"TownePlace Suites Redwood City Redwood Shores","Redwood City","39847782"
4537102,37.484058,-122.227295,"Redwood City Library","Redwood City","59173802|42011382|54444112|58251152|59797522|59797762|64355032|74143832|79316472|78661032|88554232|98018672|105585432"
4571232,37.483116,-122.224571,"Tapestry Church","Redwood City","41079622|46038452"
4590642,37.485764,-122.2286,"Cinemark Redwood Downtown 20 and XD","Redwood City","42550022"
4605112,37.513474,-122.203339,"Gunderson Dettmer","Redwood City","88378562|42675942|53237602|88378102|88377832|88379282"
4606542,37.484848,-122.226051,"The Patty Shack","Redwood City","55116302|87990592"
4613532,37.484058,-122.227295,"Redwood City Library","Redwood City","kwlvqypqbmb|51219442|67424312|84861572|99054502"
4613542,37.471519,-122.235123,"Red Morton Community Center","Redwood City","42744042|kwlvqyqcbrb"
4847692,37.485271,-122.228073,"meeting place","Redwood City","41102352"
5045232,37.474892,-122.268471,"Park & Ride","Redwood City","47015492"
5097222,37.485764,-122.2286,"Cinemark Redwood Downtown 20 and XD","Redwood City","45810042|67504172|73408062|74768772|74771212|79876812|83971542|83970132|88241312|91023782|92014762|92202572|93906902|97041562|104047142"
5147292,37.485916,-122.230858,"Pizza and Pipes","Redwood City","68745262|qjwjgcyqpbsb|qjwjgcyqqbqb|qjwjgcyrcbmb|qjwjgcyrdbrb|qjwjgcyrfbrb|qjwjgcyrgbnb|qjwjgcyrhblb|qjwjgcyrpbrb"
5147412,37.485916,-122.230858,"Pizza and Pipes","Redwood City","47898602|48333812|50453672"
5432682,37.480858,-122.224365,"Redwood Roller Rink","Redwood City","86602452"
5484892,37.494822,-122.368384,"Skyline & Hwy 92 Parking Lot","Redwood City","50851012|50688822"
5659802,37.485764,-122.2286,"Cinemark Redwood Downtown 20 and XD","Redwood City","52112262"
5672332,37.542107,-122.23513,"Shores Dog Park","Redwood City","52212332"
5740292,37.522126,-122.257513,"Nice / Merced Systems Inc","Redwood City","52738382"
5782772,37.486176,-122.233543,"Gourmet Haus Staudt Gifts & Cafe","Redwood City","53074412"
5856872,37.488426,-122.230431,"San Mateo Couny Government Center","Redwood City","53669912"
5903212,37.453922,-122.26519,"Emerald Hills Golf Course","Redwood City","54055142|95221722"
5965232,37.513474,-122.203339,"Gunderson Dettmer","Redwood City","54562552"
6013072,37.487389,-122.21637,"Redwood City Dept of Public Works","Redwood City","54965972|57461022|84746582"
6078152,37.488426,-122.230431,"San Mateo County Supervisors","Redwood City","55475632"
6113512,37.487465,-122.231155,"San Mateo County Courthouse","Redwood City","55759552"
6339752,37.482357,-122.230446,"The Movie Groove and Grind Coffee Bar","Redwood City","57598212|58414842|58415382|59386822|59387762|61153282"
6549252,37.521156,-122.259018,"SVForum Offices Sobrato Center for Nonprofits, Redwood Shores","Redwood City","54727022"
6571312,37.486477,-122.229424,"2209 Broadway St","Redwood City","59571252|80910282"
6710082,37.525097,-122.262383,"Redwood Shores Lagoon","Redwood City","60720832|62197742|74796592|79747122"
6755482,37.481934,-122.18428,"Ari Goldberg Residence","Redwood City","61063702"
6770592,37.481934,-122.18428,"Ari Goldberg Residence","Redwood City","61187132"
6948792,37.519829,-122.252151,"Togo's ","Redwood City","62682562"
6953782,37.478687,-122.187103,"Queen Bee Ice Cream","Redwood City","78984662"
7089232,37.485764,-122.2286,"Cinemark","Redwood City","63869802"
7091802,37.485214,-122.236351,"Phleger Estate - Skyline Entrance","Redwood City","63885742|81270352"
7145732,37.455956,-122.233818,"Henry Ford Elementary School","Redwood City","64332572"
7214202,37.485214,-122.236351,"Purisima Creek Redwoods","Redwood City","75441372"
7526182,37.474892,-122.268471,"Edgewood Park","Redwood City","67575782|91406692"
7568542,37.493469,-122.230499,"Lerner Chiropractic","Redwood City","67927582|67927772"
7572272,37.478981,-122.221458,"Inventor Labs","Redwood City","76217992"
7596632,37.412216,-122.26162,"Wunderlich","Redwood City","68171442|68176322|96852102"
7690442,37.472401,-122.239906,"Veterans Memorial Senior Center","Redwood City","68342752"
7726352,37.53235,-122.26419,"Oracle Conference Center","Redwood City","103831052"
7778772,37.485214,-122.236351,"JoElla's house","Redwood City","70749362"
7792462,37.463627,-122.238754,"Finest Italian Art","Redwood City","77505272|80213312"
7973942,37.485516,-122.231873,"Caltrain Redwood City Station","Redwood City","71336802"
8057622,37.528103,-122.262695,"SiSense","Redwood City","72074882|74856862|86112222"
8089632,37.484219,-122.203484,"NestGSV","Redwood City","94359512|84191222|86153682|89801682|88374112|94162592|100126692|105472612|72371762|86498142|101793362|97206802|69776052|98743662|103520882|84311532|89654392|100394002|105659322|98723862|79030612|80804602|88242012|100117212|104205392"
8262612,37.450119,-122.338303,"Purisima Creek Redwoods Open Space Preserve","Redwood City","73809612|105448132"
8347812,37.486641,-122.229607,"Redwood City's Downtown","Redwood City","74612762"
8488502,37.485214,-122.236351,"Downtown Redwood City CA","Redwood City","75741422"
8512422,37.484062,-122.227295,"Edgewood County Park","Redwood City","75971832"
8521612,37.463806,-122.297943,"Edgewood Trailhead, Edgewood County Park","Redwood City","76047482"
8526872,37.450119,-122.338303,"Purisma Creek Redwoods OSP (Trailhead PC01)","Redwood City","84360152"
8676742,37.330128,-122.255516,"Purisima Creek Redwoods Open Space Preserve","Redwood City","105912662|100311802"
8796312,37.484642,-122.206841,"Silver Spring Networks","Redwood City","78453152"
8816262,37.485214,-122.236351,"Online Webinar","Redwood City","80874532"
8825232,37.535046,-122.259148,"Storm8","Redwood City","qstdlcyqnbtb|dzjbjcyqmbjc|86324512"
9067052,37.454311,-122.228661,"On Your Computer","Redwood City","86115802|86114002|86117282"
9088672,37.493492,-122.228951,"OpenERP Inc.","Redwood City","qlvchcyqmbqb|dhpzjdyqpbsb|dhpzjdyrcbmb"
9244792,37.532349,-122.264191,"Oracle Conference Center","Redwood City","82249762"
9264112,37.487614,-122.216637,"Redwood City Public Works","Redwood City","82407332"
9321732,37.481201,-122.2248,"Redwood City Really Free Park ","Redwood City","82896382|dcxdrdyqpbgb"
9365542,37.466366,-122.241516,"SUMMIT COFFEE","Redwood City","83253482"
9539272,37.432732,-122.342079,"South Parking Lot, Purissima Creek Redwoods","Redwood City","93631442"
9644412,37.484217,-122.203486,"YouDazzle HQ / Nest GSV","Redwood City","89669012|86319162|92088782"
9668672,37.488354,-122.22818,"Every Woman Health Club","Redwood City","85828342|86449862|86450082|86647432|88276042|89045742|89046142|93082402"
9701772,37.519768,-122.251572,"Pacific Sports Resort Redwood Shores","Redwood City","97306892|97306262|86120162|104279652"
9748572,37.484219,-122.203484,"YouDazzle HQ / Nest GSV","Redwood City","dstvkcyqnbhc"
9809792,37.48711,-122.226494,"726 Main St, Redwood City, CA 94063","Redwood City","89698692|99149482"
10006662,37.486156,-122.233307,"Peacebank Yoga","Redwood City","qqksrdyqnbjc|qqksrdyqpbfc|qqksrdyqqblc|qqksrdyrcbhc|qqksrdyrdbdc"
10057312,37.485764,-122.2286,"Cinemark Redwood Downtown 20 and XD","Redwood City","89086202"
10081842,37.485214,-122.236351,"Redwood City","Redwood City","89286682"
10123092,37.430244,-122.313461,"Skyline","Redwood City","89664622"
10262082,37.486176,-122.233543,"Gourmet Haus Staudt Gifts & Cafe","Redwood City","90877242"
10386752,37.485214,-122.236351,"Private Residence","Redwood City","91971292"
10480572,37.527565,-122.264778,"Oracle Plaza, 10 Twin Dolphin Dr, Redwood City, CA 94065","Redwood City","91286062"
10624432,37.482059,-122.209419,"788 Douglas Ave","Redwood City","97556332|qjsjcfyrcbfb|ddqncfyrcbkb|dzvfdfyrcblb|ddqncfyrcbmb|dzvfdfyrcbnb|ddqncfyrcbsb|dzvfdfyrcbtb|ddqncfyrcbvb|dzvfdfyrcbwb|97928032|ddqncfyrcbcc|dzvfdfyrcbdc|ddqncfyrcbfc|dzvfdfyrcbgc|ddqncfyrcblc|dzvfdfyrcbmc|ddqncfyrcbnc|dzvfdfyrcbpc|100678122|qtzbgfyrdbdb|qtzbgfyrdbfb|ddqncfyrdbgb|dzvfdfyrdbhb|ddqncfyrdbjb|dzvfdfyrdbkb|qtzbgfyrdbmb|qtzbgfyrdbnb|100722772|ddqncfyrdbpb|dzvfdfyrdbqb|ddqncfyrdbrb|dzvfdfyrdbsb|qtzbgfyrdbvb|qtzbgfyrdbwb|ddqncfyrdbxb|dzvfdfyrdbzb|ddqncfyrdbbc|dzvfdfyrdbcc|qtzbgfyrdbfc|qtzbgfyrdbgc|dzvfdfyrdbjc|dzvfdfyrdblc|qtzbgfyrfbdb"
10684472,37.486412,-122.198723,"Nine Lives Foundation","Redwood City","94837822"
10795362,37.463627,-122.238754,"Woodside Plaza area","Redwood City","95929812|95930862"
10852702,37.485764,-122.2286,"Cinemark Redwood Downtown 20 and XD","Redwood City","96620442"
10967142,37.486309,-122.230774,"Be Yoga","Redwood City","qbfmcfyrcbgb|qbfmcfyrcbpb|qbfmcfyrcbxb|qbfmcfyrcbhc|qqfzgfyrcbpc|qbfmcfyrdbcb|qqfzgfyrdbkb|qqfzgfyrdbsb|qqfzgfyrdbcc|qqfzgfyrdblc"
10967182,37.487335,-122.2397,"Insight Mediation Center","Redwood City","99309272"
11026372,37.530838,-122.264595,"Oracle Cafeteria","Redwood City","98414632"
11047362,37.475094,-122.282578,"Pulgas Ridge Trail - ","Redwood City","98590182|101369112"
11091712,37.486736,-122.228798,"Dragon Theatre","Redwood City","98993162"
11216862,37.524708,-122.258041,"Vodafone xone","Redwood City","98800362"
11221702,37.485386,-122.228958,"Arya Global Cuisine","Redwood City","100118482"
11364122,37.484219,-122.203484,"NestGSV","Redwood City","101363042"
11439092,37.484219,-122.203484,"Classroom, NestGSV","Redwood City","105443492"
11560552,37.484219,-122.203484,"NestGSV","Redwood City","103104842"
11588512,37.492466,-122.23185,"CSL Peninsula Office and Learning Center","Redwood City","qgmnjfyrdbjb|dtmnjfyrdbkb|qgmnjfyrdbrb|dtmnjfyrdbsb|qgmnjfyrdbbc|dtmnjfyrdbcc|103340522|qgmnjfyrdbkc|dtmnjfyrdblc"
11722262,37.52863,-122.26771,"Marine Pkwy & Oracle Pkwy, Redwood City, CA 94065","Redwood City","104478302"
11741742,37.485214,-122.236351,"Michael's Friend's Garden","Redwood City","dsbtgfyrgbrb"
11755682,37.485214,-122.236351,"Kelsey's Home","Redwood City","dxpfkfyrdbxb"
11759452,37.486176,-122.233444,"Belle Nail Salon","Redwood City","104811962"
11848162,37.372829,-122.165848,"HP Palo Alto","Redwood City","91108762"
11863132,37.485214,-122.236351,"Register to get the details","Redwood City","105725812"
11869832,37.486408,-122.228348,"Old Spaghetti Factory","Redwood City","105631452"
11872632,37.432072,-122.31501,"South Parking Lot, Purissima Creek Redwoods","Redwood City","105825342"
11899052,37.511269,-122.20475,"2100 Seaport Blvd","Redwood City","106069132"
