"venue_id","venue_lat","venue_lon","venue_name","venue_city","all_event_ids"
266142,37.54241,-122.231926,"Shore Dogs Park","Redwood City","5685180,6166274,8754046,12573683,16476964"
570791,37.49,-122.2,"Pacific Shores Access Park","Redwood City","7700950,7810672"
712708,37.48575,-122.22779,"Tarboosh","Redwood City","14914819"
777029,37.4865,-122.233861,"City Pub","Redwood City","65100722"
901458,37.469427,-122.209915,"Grove of the Bay Secret Grove","Redwood City","9937525"
1045641,37.48437,-122.227379,"Donato Enoteca","Redwood City","11187788"
1193041,37.487209,-122.230636,"San Mateo County Law Library","Redwood City","12626635,13003931,14184042,15660695,47514132,49304232,54435202,58129052"
11221702,37.485386,-122.228958,"Arya Global Cuisine","Redwood City","100118482"
