"venue_id","venue_lat","venue_lon","venue_name","venue_city","all_event_ids"
88125,32.759998,-97.080002,"Half Price Bookstore","Arlington","5109851"
143901,32.755554,-97.0969,"Sushi Zone","Arlington","11234106|16403291|16306979|36008712|56083902|11234119|35947272|56104602|36009752|36010652|16363628"
176363,32.779999,-97.080002,"River Legacy Park","Arlington","87147472"
184392,32.66,-97.160004,"Spaghetti Warehouse","Arlington","5366463"
184393,32.677353,-97.125961,"Spaghetti Warehouse","Arlington","5665046"
195204,32.759998,-97.080002,"Pappadeaux's Seafood Kitchen","Arlington","14899093"
217200,32.689148,-97.12981,"Buck n' Loon's","Arlington","10344192|10492398|11370988"
220771,32.723064,-97.14911,"Chase Bank Building","Arlington","5404851|5429789|5510033|5511809|5719082|5788818|5820772|5925889|6408344|6878357|7582057|7407338|7815632|8108166|8108122|8115870|8115879|9093213|9046949|9093240|9093247|9093295|35028522|34271082|43579222|46643362|8116592|8116642"
223129,32.69952,-97.139046,"Arlington Unitarian Universalist Church","Arlington","8922843|9073297|9306953|9402471|9679868|9680623|9973069|10153865|10212064|10775389|11059107|11059202|11359622|11359637|11695384|12159599|12145116|12696203|13058892|13348108|13572058|14069162|13697827|14342278|14502992|15298100|15658488|15848066|16139476|17122445|17329378|19250461|42271732|99001342|99001192|93606002|95529102|99001792|93606032|99003622|99003672|97478812|99003872|99004142|99405642|99004222|99004312|99004392|99004542|99405792|99405892|106020562|106020622|106020702|106020752|106020792|106020832"
227114,32.72,-97.08,"Randol Mill Park","Arlington","5988332|5988389|5988393|6031364|6031368|6031373|6031392|6031394|6169645|6169648|6169651|6169655|6468690|6468697|6468702|6642600|6642606|6642611|6642623|6774233|6928200|50941082"
228240,32.690998,-97.111694,"Arlington Tennis Center","Arlington","5474619|6110310|6110460|12360561"
237953,32.764694,-97.125786,"lamar high school tennis courts","Arlington","5474652|5545453|5545684|5645551|5645614|5724765|5724766|5824478|5824482|5824486|5928030|5928028|5928044|5928050|6031383|6031385|6031398|6031400|6169617|6169623|6169629|6347513|6169635|6347529|6347535|6347540|6347550|6642586|6642587|6642590|6774227|6774231|7045934|7077194|7099365|7077207|7271850|7271854|7357541|7590475|7548568|7722212|7742128|7871387|8185727|8217801"
246531,32.76724,-97.097145,"La Madeleine Bakery (N Arlington)","Arlington","6067036|7103499|7352968|7644974|8602821|8799062|9789690|10292081|10365326|10715964|73323852|78473392"
251154,32.741108,-97.08752,"Putt Putt Golf (N Arlington)","Arlington","6266000"
256071,32.759998,-97.080002,"Starbucks","Arlington","5627836"
265185,32.75758,-97.08017,"Wyndham Arlington DFW South","Arlington","8884271"
269115,32.689999,-97.129997,"Alley Cats Entertainment","Arlington","5702835|5702818"
271766,32.759998,-97.080002,"River Legacy Park (Collins)","Arlington","5706371"
278546,32.689999,-97.129997,"Corner Bakery","Arlington","5743767"
280293,32.664486,-97.13417,"El Arroyo (Mexican Restaurant)","Arlington","5767655|7135737"
280298,32.676014,-97.14109,"Putt Putt Golf (S Arlington)","Arlington","17099206"
282537,32.73537,-97.06572,"Cowboys Arlington","Arlington","10920137|15004661|32036102|10919770|15411357|15638059|10920183|15637021|14083484|14083558|tzsnpynnbgb|cbtnpynnbhb|kbtnpynnbjb|dzsnpynnbmb|tzsnpynnbpb|cbtnpynnbqb|kbtnpynnbrb|dzsnpynnbvb|tzsnpynnbxb|cbtnpynnbzb|kbtnpynnbbc|dzsnpynnbfc|tzsnpynnbhc|cbtnpynnbjc|kbtnpynnbkc|dzsnpynnbnc|qtrhbcypmbfb|qtrhbcypmbgc|qrxjcfyrcbmb|qrxjcfyrcbvb|qrxjcfyrdbjb|14585104|14585345|14585175|14585400|14585190|14585416|14585208|14585433|14585242|hdmnpynnbdb|hdmnpynnbpb|ngmnpynnbgb|xgmnpynnbjb|14909084|hdmnpynnbmb|ngmnpynnbpb|bgmnpynnbqb|xgmnpynnbrb|14909112|14940023|hdmnpynnbvb|ngmnpynnbxb|bgmnpynnbzb|xgmnpynnbbc|14909184|hdmnpynnbfc|ngmnpynnbhc|bgmnpynnbjc|xgmnpynnbkc|14909231|hdmnpynnbnc|vqctpynpbgb|fpctpynpblb|lpctpynpbmb|fqctpynpbnb|zqctpynpbrb|fpctpynpbtb|vqctpynpbxb|zqctpynpbbc|fpctpynpbdc|lpctpynpbfc|fqctpynpbgc|fpctpynpbmc|lpctpynpbnc|lqhxpynqbcb|pqhxpynqbdb|15567004|zphxpynqbjb|gqhxpynqbkb|pqhxpynqbmb|zphxpynqbrb|gqhxpynqbsb|lqhxpynqbtb|pqhxpynqbvb|zphxpynqbbc|gqhxpynqbcc|lqhxpynqbdc|pqhxpynqbfc|zphxpynqbkc|gqhxpynqblc|lqhxpynqbmc|pqhxpynqbnc|jwhcqypcbhb|lwhcqypcblb|svhcqypcbnb|vvhcqypcbpb|lwhcqypcbtb|svhcqypcbwb|vvhcqypcbxb|lwhcqypcbdc|svhcqypcbgc|vvhcqypcbhc|svhcqypcbpc|vvhcqypdbcb|fbzjqypdbdb|cvxdqypdbfb|xwxjqypdbkb|wxxjqypdblb|fbzjqypdbmb|cvxdqypdbnb|gczjqypdbqb|16372429|xwxjqypdbsb|wxxjqypdbtb|fbzjqypdbvb|cvxdqypdbwb|gczjqypdbzb|wxxjqypdbdc|fbzjqypdbfc|cvxdqypdbgc|gczjqypdbjc|xwxjqypdblc|cvxdqypfbfb|gczjqypfbhb|dsrmqypfbmb|cvxdqypfbnb|gczjqypfbqb|dsrmqypfbvb|cvxdqypfbwb|gczjqypfbzb|dsrmqypfbfc|cvxdqypfbgc|gczjqypfbjc|dsrmqypfbnc|cvxdqypfbpc|gczjqypgbdb|cvxdqypgbkb|gczjqypgbmb|cvxdqypgbsb|gczjqypgbvb|cvxdqypgbcc|gczjqypgbfc|cvxdqypgblc|gczjqypgbnc|gvdxqyphbgb|17439281|cvxdqyphbhb|gczjqyphbkb|vtdxqyphbmb|ztdxqyphbnb|gvdxqyphbpb|cvxdqyphbqb|gczjqyphbsb|ztdxqyphbwb|gvdxqyphbxb|cvxdqyphbzb|gczjqyphbcc|vtdxqyphbfc|ztdxqyphbgc|gvdxqyphbhc|cvxdqyphbjc|gczjqyphblc|17436479|cjmhsypjbcb|cvxdqypjbdb|ckmhsypjbgb|pmmhsypjbjb|cnmhsypjbkb|cjmhsypjblb|cvxdqypjbmb|ckmhsypjbpb|pmmhsypjbrb|cnmhsypjbsb|cjmhsypjbtb|cvxdqypjbvb|ckmhsypjbxb|pmmhsypjbbc|cnmhsypjbcc|cjmhsypjbdc|cvxdqypjbfc|ckmhsypjbhc|cjmhsypjbmc|cvxdqypjbnc|ccqstypkbdb|cdktvypkbjb|cvxdqypkbkb|ccqstypkbmb|cdktvypkbrb|czjbwypkbxb|25215141|cdktvypkbbc|cvxdqypkbcc|czjbwypkbhc|25215331|cdktvypkbkc|ccqstypkbnc|pdslwyplbcb|pjlvwyplbdb|pgslwyplbjb|pdslwyplblb|pjlvwyplbmb|pgslwyplbrb|pdslwyplbtb|pgslwyplbbc|pdslwyplbdc|pjlvwyplbfc|cfslwyplbgc|pdslwyplbmc|cfslwyplbpc|qsxdbcypmbfb|pdslwypmbhb|dsxdbcypmbjb|qrxdbcypmbkb|qsxdbcypmbnb|pdslwypmbqb|dsxdbcypmbrb|qrxdbcypmbsb|qsxdbcypmbwb|pdslwypmbzb|dsxdbcypmbbc|qrxdbcypmbcc|qsxdbcypmbgc|dsxdbcypmbkc|qkpbdcypnbcb|dlpbdcypnbfb|dmpbdcypnbgb|qmpbdcypnbhb|qkpbdcypnblb|dlpbdcypnbnb|dmpbdcypnbpb|qkpbdcypnbtb|dlpbdcypnbwb|dmpbdcypnbxb|qkpbdcypnbdc|dlpbdcypnbgc|dmpbdcypnbhc|qmpbdcypnbjc|qkpbdcypnbmc|37570912|ddvwfcyppbcb|dxvwfcyppbdb|dbwwfcyppbhb|qjwwfcyppbkb|dxvwfcyppbmb|qjwwfcyppbsb|ddvwfcyppbtb|dxvwfcyppbvb|qjwwfcyppbcc|dxvwfcyppbfc|38929982|38930072|dxvwfcyppbnc|qhhdjcypqbkb|dshdjcypqbnb|dqhdjcypqbrb|qhhdjcypqbsb|dshdjcypqbwb|43479562|dnrvjcyqcbfb|qkrvjcyqcbgb|qlrvjcyqcbkb|qmrvjcyqcbmb|qkrvjcyqcbpb|qlrvjcyqcbsb|qmrvjcyqcbvb|dnrvjcyqcbwb|qkrvjcyqcbxb|qlrvjcyqcbcc|qmrvjcyqcbfc|dnrvjcyqcbgc|qkrvjcyqcbhc|qlrvjcyqcblc|48261772|qmrvjcyqcbnc|dnrvjcyqcbpc|qjkfpcyqfbfb|qgkfpcyqfbhb|qhkfpcyqfbkb|qjkfpcyqfbnb|qgkfpcyqfbqb|dhkfpcyqfbrb|qgkfpcyqfbzb|dhkfpcyqfbbc|qhkfpcyqfbcc|qjkfpcyqfbgc|qgkfpcyqfbjc|dhkfpcyqfbkc|qhkfpcyqfblc|qjkfpcyqfbpc|dqbgscyqgbdb|qrbgscyqgbfb|dsbgscyqgbgb|qtbgscyqgbkb|dqbgscyqgbmb|qrbgscyqgbnb|qrbgscyqgbwb|dsbgscyqgbxb|qtbgscyqgbcc|dqbgscyqgbfc|dsbgscyqgbhc|qtbgscyqgblc|dqbgscyqgbnc|qdtjvcyqhbcb|qvsjvcyqhbdb|qzsjvcyqhbhb|60938822|qzsjvcyqhbqb|qdtjvcyqhbtb|qvsjvcyqhbvb|qzsjvcyqhbzb|qzsjvcyqhbjc|62704972|qvsjvcyqhbnc|qlgcxcyqjbdb|dngcxcyqjbgb|dsgcxcyqjbhb|dtgcxcyqjbjb|dngcxcyqjbpb|dsgcxcyqjbqb|qlgcxcyqjbvb|dngcxcyqjbxb|dsgcxcyqjbzb|dtgcxcyqjbbc|qlgcxcyqjbfc|dngcxcyqjbhc|dtgcxcyqjbkc|qlgcxcyqjbnc|qnrtbdyqkbdb|drrtbdyqkbkb|qnrtbdyqkbmb|qnrtbdyqkbnb|drrtbdyqkbsb|qnrtbdyqkbvb|qnrtbdyqkbwb|drrtbdyqkbcc|qnrtbdyqkbfc|qnrtbdyqkbgc|drrtbdyqkblc|qnrtbdyqkbnc|qnrtbdyqkbpc|dtwdfdyqlbcb|75040642|qnrtbdyqlbjb|dtwdfdyqlblb|qnrtbdyqlbrb|qnrtbdyqlbsb|dtwdfdyqlbtb|qnrtbdyqlbbc|dtwdfdyqlbdc|qnrtbdyqlbkc|qnrtbdyqlblc|dtwdfdyqlbmc|qdzchdyqmbgb|qlzchdyqmbhb|dpzchdyqmbnb|qlzchdyqmbqb|qdzchdyqmbxb|qlzchdyqmbzb|dbhsndyqnbdb|qdhsndyqnbfb|dghsndyqnbjb|djhsndyqnblb|qdhsndyqnbnb|dghsndyqnbrb|djhsndyqnbtb|dbhsndyqnbvb|qdhsndyqnbwb|dghsndyqnbbc|djhsndyqnbdc|dbhsndyqnbfc|qdhsndyqnbgc|dghsndyqnbkc|djhsndyqnbmc|dbhsndyqnbnc|qdhsndyqnbpc|qdwhwdyqqbcb|92843742|92843642|dmwhwdyqqbhb|qdwhwdyqqblb|92844372|92844412|dmwhwdyqqbqb|qdwhwdyqqbtb|dmwhwdyqqbzb|qdwhwdyqqbdc|dmwhwdyqqbjc|qdwhwdyqqbmc|qcxhwdyrcbhb|qcxhwdyrcbqb|qcxhwdyrcbzb|qcxhwdyrcbjc|dccnjfyrdbjb|dscnjfyrdbmb|dccnjfyrdbrb|dscnjfyrdbvb|dscnjfyrdbfc|dccnjfyrdbkc|15637061"
284062,32.720001,-97.080002,"Taste of Thai","Arlington","5789442"
287058,32.680473,-97.109505,"Borders","Arlington","ftxxpypgbqb"
291823,32.784695,-97.09645,"Piranha Killer Sushi","Arlington","5832250|16032500|17224159|19136921|28454241|28454611"
305523,32.721287,-97.143196,"Blue Danube European Restaurant","Arlington","8340937|5982761|6212793|6381652|6682396|6682413|6998243|7141509|7450798|7541898|7762660|7989576|8218896|8961302|9185156|9430994|9633717|9856074|10041228|10326871|10542170|10998310|11235548|11428439|11710754|11958572|12682327|12782835|12994743|13282711|13630532|13994060|14435640|14886724|15209719|15546603|15818428|15967488|16151123|16662407|pskwqyphbgb|pskwqypjbcb|16548854"
308516,32.735477,-97.105896,"Coffee Haus","Arlington","6067021|7734587|13917237"
313472,32.67877,-97.13488,"La Madeleine Bakery (S Arlington)","Arlington","35698042"
314702,32.685844,-97.132294,"Easton's","Arlington","8626891"
326046,32.74162,-97.05689,"American Motorcycle Trading Company","Arlington","6043710"
332515,32.749737,-97.076736,"Sherlock's Baker St. Pub","Arlington","11645729|15335797|35806632|11061377|10447588|15242623|49931942"
332879,32.735783,-97.11937,"The Tin Cup","Arlington","80113492"
343120,32.619999,-97.150002,"Cravens Park","Arlington","pdkdwyplbjb|cjmsxyplbbc|cjmsxyplbkc"
344443,32.755135,-97.08723,"JOE'S CRAB SHACK","Arlington","6167531|10397763|13472711"
344789,32.713955,-97.176605,"Clarence Foster Park","Arlington","pwznnynjbhb|pwznnynkbgc|16217192|pfgbryphbsb|pfgbryphbcc|pfgbryphblc"
345370,32.755638,-97.098885,"Birraporetti's","Arlington","6067072|10430421"
348699,32.754307,-97.097244,"El Chico","Arlington","10394779|10395190"
350986,32.689999,-97.129997,"No Frills Bar and Grill","Arlington","6215460|6286927|6435240|6646441|6864133"
351264,32.68058,-97.09358,"Whataburger","Arlington","6217596"
351854,32.7591,-97.08846,"Shady Oak Barbeque & Grill - Arlington","Arlington","6380246"
355669,32.676838,-97.14952,"Bobby Valentine's","Arlington","6246924|7027451"
355980,32.683514,-97.11481,"America's Best Coffee","Arlington","6249094|7236216|8559136"
357212,32.687088,-97.147087,"Bob Duncan Center","Arlington","6241171"
357692,32.733433,-97.10007,"The Bahai Center","Arlington","6236664"
358710,32.75282,-97.06774,"Humperdink's","Arlington","6266038|6308047|6783613|7247227|7247249|7335670|7725164|7958023|8907109|26718671"
359802,32.78273,-97.116524,"River Legacy Park","Arlington","6272961|15063515|14854293|90964092"
366279,32.650002,-97.089996,"Fish Creek Linear Park","Arlington","6269530"
370288,32.76724,-97.097145,"La Madelein","Arlington","6154998"
374403,32.720001,-97.080002,"J. Gilligan's Bar and Grill","Arlington","6371962|6466193|6569991"
375729,32.689999,-97.129997,"Martin Sprocket & Gear Auditorium","Arlington","6380243"
385769,32.704296,-97.105255,"Stoneridge Homeowner's Association","Arlington","9421154|9426290"
393061,32.75911,-97.095795,"Winghouse of Arlington","Arlington","6099717"
396228,32.784695,-97.0963,"My Martini Wine & Bistro","Arlington","10719131"
400118,38.81567,-77.023056,"Gloria's (Arlington)","Arlington","6542937|8065470|8953341|12147732"
401303,32.619999,-97.150002,"UT Arlington / Bluebonnet Ballroom","Arlington","6557989|6551622"
403641,32.794052,-97.087494,"Fox N Hound","Arlington","10575884|10772683|11084386|50631892|10778679|11087629"
414013,32.735806,-97.12501,"Inquire Within office ","Arlington","14003662"
418253,32.689999,-97.190002,"Xeriscape Gardens (Veterans Park)","Arlington","6663417"
421167,32.764854,-97.079285,"Pvt Residence","Arlington","7174272"
423561,32.729553,-97.11642,"UTA University Center","Arlington","6697476"
425120,32.682777,-97.19577,"Taisho Sushi","Arlington","6707301"
439842,32.73783,-97.100685,"Dyno Rock","Arlington","6811399|7170983|7796966"
444627,32.727268,-97.076736,"J Gilligans","Arlington","6845216|6864569|8374888|8493314|8683614|8877077|9676179|10356624|12075214|12075216|12075237|12075243|17367133"
448302,32.6555,-97.07517,"Milkyway Coffee Shop","Arlington","6869199"
450173,32.709915,-97.155033,"Narah Cafe","Arlington","13090441"
452483,32.72,-97.15,"Parks Mall","Arlington","6931120|6899318"
456354,32.75702,-97.0972,"Black Eyed Pea","Arlington","6930736|12176505"
467116,32.671173,-97.202065,"Mollies Hamburgers","Arlington","7027469"
468559,32.7284,-97.11497,"UT Arlington / TEXAS HALL","Arlington","7038510"
470542,32.75026,-97.10277,"Meditation Center of Texas","Arlington","7123447|7239969|7123460|7123468|7123326"
471883,32.762608,-97.06637,"Residence Inn","Arlington","6879328"
473412,32.735783,-97.11919,"Arlington Yoga Center","Arlington","7026960"
474928,38.81567,-77.023056,"Borders Books","Arlington","6912529|7395781|7491138|7581410"
475640,32.732086,-97.11103,"UTA Bluebonnet Room","Arlington","7090725"
487020,32.729553,-97.11642,"UT- Arlington - Texas Hall","Arlington","9610890|11229865"
492974,32.70677,-97.163666,"Veteran's Park","Arlington","60919482|72361262|74330312|74330372|dnrmgcyppbkc|dnrmgcypqbgb|dnrmgcypqbxb|dnrmgcyqcbcb|dnrmgcyqcblb|dnrmgcyqcbtb|dnrmgcyqcbdc|dnrmgcyqdbhb|dnrmgcyqdbzb|dnrmgcyqfbgb|dnrmgcyqfbpb|dnrmgcyqfbxb|dnrmgcyqgbcb|dnrmgcyqgblb|dnrmgcyqgbtb|dnrmgcyqgbdc|dnrmgcyqgbmc|cwgvwyqhbjb|cghvwyqgbmc|dnrmgcyqhbkc|dnrmgcyqjbfb|dnrmgcyqjbnb|dnrmgcyqjbwb|dnrmgcyqjbgc|dnrmgcyqkbcb|dnrmgcyqkblb|dnrmgcyqkbtb|dnrmgcyqkbdc|dnrmgcyqlbhb|dnrmgcyqlbqb|dnrmgcyqlbjc|dnrmgcyqmbdb|dnrmgcyqmbmb|dnrmgcyqmbvb|dnrmgcyqmbfc|dnrmgcyqnbsb|dnrmgcyqnbcc|dnrmgcyqnblc|dnrmgcyqpbgb|dnrmgcyqpbpb|dnrmgcyqpbxb|dnrmgcyqpbhc|dnrmgcyqqbdb|dnrmgcyqqbmb|dnrmgcyqqbfc|dnrmgcyqqbnc|qdggxdyrcbjb|qdggxdyrcbrb|qdggxdyrcbbc|qdggxdyrdbfb|qdggxdyrdbnb|qdggxdyrdbwb|qdggxdyrfbfb|qkbtccypmbhc|qkbtccypnbdb|qkbtccypnbfc|dnmgdcyppbjb|dnmgdcypqbxb|dnmgdcypqbhc|dnmgdcyqcbcb|drttqcyqfbgc|drttqcyqfbpc|dtbgscyqfbpc|drttqcyqgbkb|dtbgscyqgbkb|drttqcyqgbsb|dtbgscyqgbsb|drttqcyqgbcc|dtbgscyqgbcc|drttqcyqgblc|dtbgscyqgblc|dtbgscyqhbhb|dtbgscyqhbzb|dtbgscyqhbjc|dtbgscyqjbdb|dtbgscyqjbmb|dtbgscyqjbvb|dtbgscyqjbfc|qnfrhdyrcbkc|qnfrhdyrdbfb|qnfrhdyrdbwb|dfbskfyrdbwb|dfbskfyrdbgc|dfbskfyrfbfb"
499688,32.66704,-97.13405,"Race-Trac","Arlington","7244721|7678885|14249556"
508911,32.758556,-97.07807,"Texas Land & Cattle","Arlington","11588426|hfbnpynpbdb|qwktpynpbmb|qwktpynpbvb|qwktpynpbnc|qwktpynqbkb|qwktpynqbsb"
534883,32.66473,-97.0906,"NW Lincoln Square- Arlington","Arlington","7475008"
537435,32.671337,-97.13437,"Hibachi Sushi 2007","Arlington","7491156"
548021,32.75282,-97.06774,"Humperdink's Arlington","Arlington","7558975|7604803"
549254,32.7,-97.09,"City of Arlington Parks","Arlington","7567047"
550407,32.66,-97.16,"Linda's House","Arlington","7574640|7574742|8264180"
562622,32.64111,-97.075096,"C.A. Roberson Theatre, TCC Southeast Campus","Arlington","7655406"
565890,32.735546,-97.10348,"J. Gilligan's Bar & Grill","Arlington","7646485|7646491|7646493|7646495|7762658|7762661|7762665|7995913|7995936|8001838|8218897|8218898|8218900|8218901|8318033|8318052|8318053|8494331|8494339|8494344|8574591|8574594|8574601|8574602|8961314|8961316|8986229|9185170|9185174|9185175|9431041|9468938|9468944|9633722|9633723|9633725|9856471|9856475|9856478|10041697|10054731|10054734|10054735|10357444|10416539|10416548|10542172|10542174|10542175|10768119|10768137|10781817|10999788|10999791|10999794|11235564|11235571|11235579|11235594|11451115|11451124|11451134|11710770|11710846|12034085|12034087|12034090|12034092|12136125|12136128|12136132|12436897|12436898|12436902|12682332|12682338|12682341|13034969|13034971|13034972|13034966|13034968|13304135|13630535|13630537|13630538|13630542|13994064|13994074|13994081|14245796|14245802|14245818|14435642|14435643|14435699|14435703|14886730|15134794|15134795|15209724|15209726|15520049|15546741|15597908|15546846|15820004|15943087|15943103|16151127|lvkkqypdbvb|qvkkqypdbfc|vwshqypfbmb|lvkkqypfbvb|qvkkqypfbfc|16411531|vwshqypgbrb|lvkkqypgbbc|qvkkqypgbkc|vwshqyphbpb|qvkkqyphbhc|vwshqypjblb|qvkkqypjbdc|18733371|vwshqypkbrb|lvkkqypkbbc|vwshqyplbnb|lvkkqyplbwb|qvkkqyplbgc|31391262|vwshqypmbsb|lvkkqypmbcc|qvkkqypmblc|vwshqypnbqb|lvkkqypnbzb|qvkkqypnbjc|vwshqyppbmb|lvkkqyppbvb|qvkkqyppbfc|42345212|vwshqypqbsb|lvkkqypqbcc|qvkkqypqblc|vwshqyqcbpb|lvkkqyqcbxb|qvkkqyqcbhc|vwshqyqdblb|lvkkqyqdbtb|qvkkqyqdbdc|47227842|vwshqyqfbsb|lvkkqyqfbcc|qvkkqyqfblc|vwshqyqgbpb|lvkkqyqgbxb|qvkkqyqgbhc|vwshqyqhbmb|lvkkqyqhbvb|mqzgnyqhbbc|qvkkqyqhbfc|66339262|vwshqyqjbrb|lvkkqyqjbbc|qvkkqyqjbkc|vwshqyqkbpb|lvkkqyqkbxb|qvkkqyqkbhc|vwshqyqlblb|lvkkqyqlbtb|qvkkqyqlbdc|66339392|vwshqyqmbqb|lvkkqyqmbzb|qvkkqyqmbjc|pfspryqnbfb|vwshqyqnbnb|lvkkqyqnbwb|qvkkqyqnbgc|66339502|pfspryqpbkb|vwshqyqpbsb|lvkkqyqpbcc|qvkkqyqpblc|pfspryqqbhb|90565112|vwshqyqqbqb|lvkkqyqqbzb|qvkkqyqqbjc|pfspryrcbdb|vwshqyrcbmb|lvkkqyrcbvb|qvkkqyrcbfc|66339722|pfspryrdbjb|vwshqyrdbrb|lvkkqyrdbbc|qvkkqyrdbkc|pfspryrfbjb|vwshqyrfbrb|lvkkqyrfbbc|qvkkqyrfbkc|vwshqyrgbnb|lvkkqyrgbwb|qvkkqyrgbgc|vwshqyrhblb|lvkkqyrhbtb|qvkkqyrhbdc|77757422|77757612"
573340,32.722694,-97.147583,"Chase Bank Building","Arlington","8061545|8108183|8108142|8115868|8115883|8115899|9093243|9093271|9093277|9093300|9093308|9093342|9093363|9093383|9100842|11980667|11924039|11924097|15536410|13420683|15971608|16164712|28786951|31870062|36032132|42180922|45855782|51703782|54689202|54031492|54528232|61936172|63951712|66035042|58406222|70831142|68231852|74857122|76883682|78723652|72224392|80980262|90550752|88232442|88389342|93028452|93515272|103154972|101016542|80658432|7715575|7917118|8116598|8552612|8626508|8116643|24945591|26333071|32898942|36032202|54687722|54532972|61937662|61938162|70834872|74858232|90551172|88393242|93028962|93515342|102146422|103157312|33552292|36031462|42181082|45856062|51701112|54689082|54513932|61936422|66035152|70832192|74852772|78720752|90550072|88379512|93027852|93514392|103151732|15719322|15807664|15807686|17141988|16110316|16490961|21786471|24945421|26333101|16927914|16927945|36032032|16927965|45856472|51702082|54688542|54516392|61937012|66035232|70832862|74853842|78721322|90550282|88381342|93028172|93514902|103152832"
578579,32.725742,-97.12629,"UTA Maverick Stadium","Arlington","7745985|10098379|10285519|13479212|17096196"
584228,32.750977,-97.08425,"Joe's Crab Shack","Arlington","7781749"
588215,32.774006,-97.0808,"The Tan Room (sign still says Ultra Tan)","Arlington","7804695"
591104,32.75007,-97.112434,"Arlington Camera","Arlington","7823552"
591173,32.757645,-97.08218,"Sheraton Arlington Hotel & Convention Center","Arlington","7824015"
606346,32.761295,-97.068428,"Grand Chinese Buffet","Arlington","8201030"
607278,32.770035,-97.06421,"Cracker Barrel","Arlington","7922556|9473183"
618998,32.676235,-97.149086,"Bobby V's Sports Galley Cafe","Arlington","7994526"
624126,32.740166,-97.09243,"Candlelight Inn","Arlington","7993238|9606359|13241198"
633241,32.659325,-97.06568,"kroger parking lot ","Arlington","8080289|12703832|13041075|13234336|13499589|16908239|csmkwypkbbc|47009872"
675460,32.75282,-97.06774,"Humperdink's","Arlington","10168210|8963832|9153171|9343162|9385552|9541486|11577182|11995316|9343151|9792620|10067750|10325691|10325774|10325858"
675466,32.697166,-97.10819,"Bob Duncan Center","Arlington","7200065|8108137|8389606|9093262|9093319|12169046|9681643|11398892"
675469,32.754707,-97.08104,"Arlington Convention Center","Arlington","cpzrwyqfblc|7615144|9709503|35541422|14890944|32543162|79027642|93558412|106024622|56112382|12184399|12184424|12184440|12184456|86023222|91576152|31606112|34952772|20647061|74973022|74789122"
675471,32.664486,-97.13417,"El Arroyo's","Arlington","17079862"
675475,32.721283,-97.14282,"Creative Hands","Arlington","49710452|54647502|72306932|88259782|101424292|49407192"
675476,32.653336,-97.10965,"Cravens Park","Arlington","10639207|10868050|pxncwyplbjb|pxncwyplbbc|pxncwyplbkc|105311512"
675479,32.755844,-97.10033,"Olenjack's Grille","Arlington","56569762|5667839|35745292|37596112"
675481,32.765537,-97.09924,"Whole Foods Market","Arlington","11255091"
675482,32.724354,-97.16052,"Dottie Lynn Recreation Center","Arlington","17297074|21721751|28993991|29602831|30292241|dqwmvcyqhbfb"
675483,32.731884,-97.11774,"UTA MAC (Maverick Activities Building) West Lawn","Arlington","5817836|5817841|5817846|5817849|7940920|7940979|7940992|7941161"
675485,32.762408,-97.070216,"Cacharel Restaurant","Arlington","82244972|7028495|83582052"
675486,32.758568,-97.100327,"Sherlock's Baker Street Pub","Arlington","11958591|5954636|10430512|11930811|15217001|16708066|35702322|14245775|13007661|11958563|12571785|12635381|16524178|16584529|49931722|11657619|103491382|15533762|15717480"
675488,32.76128,-97.06926,"Trail Dust","Arlington","11600777|11800036|11795178"
675489,32.75027,-97.139,"Randol Mill Park","Arlington","7444553|7447100|7550556|7627982|7668007|7668066|7744507|8165093|8215191|8215205|8445423|8445528|8445481|8515360|8515410|8515457|8515771|8644129|8758015|8799069|8829839|8861335|8886982|8913738|8913743|8958505|9005681|9038460|9059833|9086769|9105169|9135522|9161182|9181708|9210088|9229947|9269520|9271714|9271749|9271773|9271783|9414660|9451562|9473462|9501220|9530780|9554251|9581391|9629597|9674026|9700329|9727038|9756017|9785901|9806049|9848046|9918602|9933895|9934050|9996794|10013405|10035890|10036079|10096076|10121716|10169981|10170030|10232026|10255525|10280349|10301721|10315997|10339423|10339349|10339267|10387577|10387372|10439871|10439816|10439739|10488165|10500912|10500815|10500731|10552743|10552585|10600083|10599948|10599842|10660751|10660563|10660519|10702959|10730972|10730919|10739864|10765945|10765881|10765772|10816165|10818407|10818454|10875710|10875801|10875853|10919410|10919315|10919202|10964067|10972085|11029273|11083053|11082984|11082948|11133643|11133552|11133372|11192555|11192586|11192620|11251317|11251397|11251515|11316155|11380768|11380796|11431407|11431270|11431244|11454442|11514764|11556816|11556766|11556711|11620508|11620537|11620729|11661854|11661654|11661634|11727675|11727610|11727505|11785582|11785266|11785078|11835629|11835438|11835366|11889911|11951828|11951865|11951892|12062946|12092572|12092549|12151799|12166846|12196192|12271088|12296817|12296818|12296824|12360565|12360572|12432263|12489564|12489982|12563613|12563668|12616307|12616314|12650753|12616319|12688769|12688666|12759147|12760924|12821774|12842183|12842301|12887545|12887656|12887804|12949130|12963888|12963979|12964043|13034869|13034881|13034895|13092670|vpvjnyngbmb|bqvjnyngbpb|npvjnyngbsb|vpvjnyngbvb|npvjnyngbcc|vpvjnyngbfc|bqvjnyngbhc|npvjnyngblc|vpvjnyngbnc|qgtnnynhbdb|tgtnnynhbhb|wgtnnynhbkb|tgtnnynhbqb|qgtnnynhbvb|tgtnnynhbzb|wgtnnynhbcc|qgtnnynhbfc|tgtnnynhbjc|wgtnnynhblc|qgtnnynhbnc|tgtnnynjbdb|wgtnnynjbgb|qgtnnynjbjb|tgtnnynjbmb|wgtnnynjbpb|qgtnnynjbrb|tgtnnynjbvb|wgtnnynjbxb|qgtnnynjbbc|lgrwnynjbfc|wgtnnynjbhc|qgtnnynjbkc|wgtnnynkbdb|lgrwnynkbkb|qgtnnynkbpb|lgrwnynkbsb|wgtnnynkbvb|qgtnnynkbxb|lgrwnynkbcc|wgtnnynkbfc|qgtnnynkbhc|lgrwnynkblc|qgtnnynlbcb|lgrwnynlbgb|wgtnnynlbjb|qgtnnynlblb|lgrwnynlbpb|wgtnnynlbrb|qgtnnynlbtb|lgrwnynlbxb|wgtnnynlbbc|qgtnnynlbdc|lgrwnynlbhc|wgtnnynlbkc|qgtnnynlbmc|lgrwnynmbcb|lgrwnynmblb|wgtnnynmbnb|qgtnnynmbqb|lgrwnynmbtb|wgtnnynmbwb|lgrwnynmbdc|wgtnnynmbgc|qgtnnynmbjc|lgrwnynmbmc|wgtnnynnbcb|lgrwnynnbjb|wgtnnynnblb|qgtnnynnbnb|lgrwnynnbrb|wgtnnynnbtb|qgtnnynnbwb|wgtnnynnbdc|qgtnnynnbgc|lgrwnynnbkc|wgtnnynnbmc|qgtnnynnbpc|lgrwnynpbfb|wgtnnynpbhb|qgtnnynpbkb|lgrwnynpbnb|wgtnnynpbqb|qgtnnynpbsb|lgrwnynpbwb|wgtnnynpbzb|qgtnnynpbcc|lgrwnynpbgc|wgtnnynpbjc|lgrwnynqbcb|wgtnnynqbfb|qgtnnynqbhb|lgrwnynqblb|wgtnnynqbnb|lgrwnynqbtb|wgtnnynqbwb|qgtnnynqbzb|15778665|lgrwnynqbdc|wgtnnynqbgc|qgtnnynqbjc|lgrwnynqbmc|wgtnnynqbpc|qgtnnypcbdb|lgrwnypcbhb|wgtnnypcbkb|qgtnnypcbmb|wgtnnypcbsb|qgtnnypcbvb|16070964|lgrwnypcbzb|16125405|qgtnnypcbfc|lgrwnypcbjc|wgtnnypcblc|qgtnnypcbnc|lgrwnypdbdb|wgtnnypdbgb|qgtnnypdbjb|16482036|lgrwnypdbmb|wgtnnypdbpb|qgtnnypdbrb|lgrwnypdbvb|wgtnnypdbxb|qgtnnypdbbc|lgrwnypdbfc|wgtnnypdbhc|qgtnnypdbkc|lgrwnypfbdb|wgtnnypfbgb|qgtnnypfbjb|lgrwnypfbmb|wgtnnypfbpb|qgtnnypfbrb|lgrwnypfbvb|qgtnnypfbbc|lgrwnypfbfc|wgtnnypfbhc|qgtnnypfbkc|lgrwnypfbnc|wgtnnypgbcb|qgtnnypgbfb|lgrwnypgbjb|wgtnnypgblb|qgtnnypgbnb|lgrwnypgbrb|wgtnnypgbtb|qgtnnypgbwb|lgrwnypgbbc|wgtnnypgbdc|qgtnnypgbgc|lgrwnypgbkc|wgtnnypgbmc|lgrwnyphbgb|wgtnnyphbjb|qgtnnyphblb|lgrwnyphbpb|wgtnnyphbrb|qgtnnyphbtb|lgrwnyphbxb|qgtnnyphbdc|lgrwnyphbhc|wgtnnyphbkc|qgtnnyphbmc|wgtnnypjbfb|qgtnnypjbhb|lgrwnypjblb|wgtnnypjbnb|lgrwnypjbtb|wgtnnypjbwb|pkfstypjbzb|lgrwnypjbdc|wgtnnypjbgc|pkfstypjbjc|lgrwnypjbmc|wgtnnypkbcb|pkfstypkbfb|lgrwnypkbjb|wgtnnypkblb|pkfstypkbnb|lgrwnypkbrb|wgtnnypkbtb|pkfstypkbwb|lgrwnypkbbc|wgtnnypkbdc|pkfstypkbgc|lgrwnypkbkc|wgtnnypkbmc|pkfstypkbpc|lgrwnyplbfb|wgtnnyplbhb|pkfstyplbkb|lgrwnyplbnb|wgtnnyplbqb|pkfstyplbsb|lgrwnyplbwb|wgtnnyplbzb|pkfstyplbcc|lgrwnyplbgc|wgtnnyplbjc|pkfstyplblc|lgrwnyplbpc|wgtnnypmbdb|pkfstypmbgb|lgrwnypmbkb|wgtnnypmbmb|pkfstypmbpb|lgrwnypmbsb|wgtnnypmbvb|pkfstypmbxb|lgrwnypmbcc|wgtnnypmbfc|pkfstypmbhc|wgtnnypmbnc|pkfstypnbdb|lgrwnypnbhb|wgtnnypnbkb|pkfstypnbmb|lgrwnypnbqb|wgtnnypnbsb|lgrwnypnbzb|wgtnnypnbcc|pkfstypnbfc|lgrwnypnbjc|wgtnnypnblc|pkfstypnbnc|lgrwnyppbdb|wgtnnyppbgb|pkfstyppbjb|lgrwnyppbmb|wgtnnyppbpb|pkfstyppbrb|lgrwnyppbvb|wgtnnyppbxb|pkfstyppbbc|lgrwnyppbfc|wgtnnyppbhc|pkfstyppbkc|lgrwnyppbnc|wgtnnypqbdb|pkfstypqbgb|lgrwnypqbkb|wgtnnypqbmb|pkfstypqbpb|wgtnnypqbvb|pkfstypqbxb|lgrwnypqbcc|wgtnnypqbfc|lgrwnypqblc|wgtnnypqbnc|pkfstyqcbcb|lgrwnyqcbgb|wgtnnyqcbjb|pkfstyqcblb|lgrwnyqcbpb|wgtnnyqcbrb|pkfstyqcbtb|lgrwnyqcbxb|wgtnnyqcbbc|pkfstyqcbdc|lgrwnyqcbhc|wgtnnyqcbkc|pkfstyqcbmc|lgrwnyqdbcb|wgtnnyqdbfb|pkfstyqdbhb|lgrwnyqdblb|wgtnnyqdbnb|pkfstyqdbqb|lgrwnyqdbtb|wgtnnyqdbwb|lgrwnyqdbdc|wgtnnyqdbgc|pkfstyqdbjc|lgrwnyqdbmc|wgtnnyqfbdb|pkfstyqfbgb|lgrwnyqfbkb|wgtnnyqfbmb|pkfstyqfbpb|lgrwnyqfbsb|wgtnnyqfbvb|pkfstyqfbxb|lgrwnyqfbcc|pkfstyqfbhc|lgrwnyqfblc|wgtnnyqfbnc|pkfstyqgbcb|lgrwnyqgbgb|wgtnnyqgbjb|pkfstyqgblb|lgrwnyqgbpb|wgtnnyqgbrb|pkfstyqgbtb|lgrwnyqgbxb|wgtnnyqgbbc|pkfstyqgbdc|lgrwnyqgbhc|wgtnnyqgbkc|pkfstyqgbmc|lgrwnyqhbdb|wgtnnyqhbgb|pkfstyqhbjb|lgrwnyqhbmb|wgtnnyqhbpb|pkfstyqhbrb|lgrwnyqhbvb|wgtnnyqhbxb|pkfstyqhbbc|lgrwnyqhbfc|wgtnnyqhbhc|pkfstyqhbkc|lgrwnyqhbnc|wgtnnyqjbcb|dntwxcyqjbfb|wgtnnyqjblb|dntwxcyqjbnb|lgrwnyqjbrb|wgtnnyqjbtb|dntwxcyqjbwb|lgrwnyqjbbc|wgtnnyqjbdc|dntwxcyqjbgc|lgrwnyqjbkc|wgtnnyqjbmc|dntwxcyqkbcb|lgrwnyqkbgb|wgtnnyqkbjb|dntwxcyqkblb|lgrwnyqkbpb|wgtnnyqkbrb|dntwxcyqkbtb|lgrwnyqkbxb|wgtnnyqkbbc|dntwxcyqkbdc|lgrwnyqkbhc|ddkgfdyqkbkc|lgrwnyqlbcb|ddkgfdyqlbfb|dntwxcyqlbhb|lgrwnyqlblb|ddkgfdyqlbnb|dwxlgdyqlbqb|lgrwnyqlbtb|ddkgfdyqlbwb|dwxlgdyqlbzb|lgrwnyqlbdc|ddkgfdyqlbgc|dwxlgdyqlbjc|lgrwnyqlbmc|ddkgfdyqlbpc|dwxlgdyqmbdb|lgrwnyqmbhb|ddkgfdyqmbkb|dwxlgdyqmbmb|lgrwnyqmbqb|ddkgfdyqmbsb|dwxlgdyqmbvb|lgrwnyqmbzb|ddkgfdyqmbcc|dwxlgdyqmbfc|ddkgfdyqmblc|dwxlgdyqmbnc|lgrwnyqnbfb|ddkgfdyqnbhb|dwxlgdyqnbkb|lgrwnyqnbnb|ddkgfdyqnbqb|dwxlgdyqnbsb|lgrwnyqnbwb|ddkgfdyqnbzb|qwrcrdyqnbcc|lgrwnyqnbgc|qwrcrdyqnblc|qtjksdyqnbpc|ddkgfdyqpbdb|qwrcrdyqpbgb|qtjksdyqpbkb|ddkgfdyqpbmb|qwrcrdyqpbpb|qtjksdyqpbsb|ddkgfdyqpbvb|qwrcrdyqpbxb|qtjksdyqpbcc|ddkgfdyqpbfc|qwrcrdyqpbhc|qtjksdyqpblc|ddkgfdyqpbnc|qwrcrdyqqbdb|qtjksdyqqbhb|ddkgfdyqqbkb|qwrcrdyqqbmb|qtjksdyqqbqb|ddkgfdyqqbsb|95388612|qwrcrdyqqbvb|qtjksdyqqbzb|ddkgfdyqqbcc|qwrcrdyqqbfc|qtjksdyqqbjc|ddkgfdyqqblc|qwrcrdyqqbnc|qtjksdyrcbdb|ddkgfdyrcbgb|qwrcrdyrcbjb|qtjksdyrcbmb|ddkgfdyrcbpb|qwrcrdyrcbrb|qtjksdyrcbvb|ddkgfdyrcbxb|qwrcrdyrcbbc|qtjksdyrcbfc|ddkgfdyrcbhc|qwrcrdyrcbkc|qtjksdyrcbnc|ddkgfdyrdbcb|qwrcrdyrdbfb|qtjksdyrdbjb|ddkgfdyrdblb|qwrcrdyrdbnb|qtjksdyrdbrb|ddkgfdyrdbtb|qwrcrdyrdbwb|qtjksdyrdbbc|ddkgfdyrdbdc|qwrcrdyrdbgc|qtjksdyrdbkc|ddkgfdyrfbcb"
675491,32.66971,-97.20324,"No Frills Grill  ","Arlington","8481178|11682387"
675493,32.75251,-97.07256,"Six Flags Over Texas","Arlington","56111222|10671070|21384571|56111662|91161092|14807024|64664852"
675495,32.70677,-97.163666,"Veterans Park","Arlington","14923823|8810725|11726512|68752822|8395468|8899514|11591578|13572119|13697781|13697800|13697818|14280164|14342323|14342359|14604169|14442765|15298051|15298068|15298570|15298592|15658511|15407219|15848044|15848073|16809755|16809659|17122457|17122630|17232571|17329479|19250591|19250821|19303431|19302691|19302141|27357621|27358091|27357781|27358731|27358771|27358871|31209792|30169241|31209852|27359781|35896112|35895822|31926712|37602412|57628792|56810342|60920302|60920432|60920362|60920472|63521142|63521222|63521152|63521242|65228582|65228182|65228242|63360582|65228322|65228392|63360312|63360662|67878642|67878742|63360352|71472402|71383042|71383322|71383342|71383372|71384242|71384372|71383392|71383432|71383592|71383672|71383482|76714942|73299152|73299172|73299412|73299252|73299462|73299502|76715262|76715402|76715762|76715472|76715532|76715932|76716232|76716452|76715632|76716012|76716372|76716522|79803812|86819842|87403942|78005942|85176932|87593652|87593962|78006012|85176992|87594072|85198702|85198782|85198872|85198962|85199032|85199082|85199832|93605302|85200782|85199912|93605462|93605472|93605512|95529012|11726694|pwznnynhbtb|pwznnynhbdc|pwznnynhbmc|pwznnynjbqb|pwznnynjbzb|pwznnynjbjc|pwznnynkbfb|pwznnynkbnb|pwznnynkbwb|pwznnynkbpc|pwznnynlbkb|pwznnynlbsb|pwznnynlbcc|pwznnynmbpb|pwznnynmbxb|pwznnynmbhc|pwznnynnbvb|pwznnynnbfc|pwznnynpbjb|pwznnynpbrb|pwznnynpbbc|pxncwypmbfb|pxncwypmbnb|pxncwypmbwb|pxncwypmbgc|cnrpnynhbtb|cnrpnynhbdc|cnrpnynhbmc|cnrpnynjbqb|cnrpnynjbzb|cnrpnynjbjc|cnrpnynkbfb|cnrpnynkbnb|cnrpnynkbwb|cnrpnynkbpc|cnrpnynlbkb|cnrpnynlbsb|cnrpnynlbcc|cnrpnynlblc|cnrpnynmbpb|cnrpnynmbxb|cnrpnynmbhc|cnrpnynnbdb|cnrpnynnbvb|cnrpnynnbfc|cnrpnynpbjb|cnrpnynpbrb|cnrpnynpbbc|cjmsxypmbfb|cjmsxypmbnb|cjmsxypmbwb|cjmsxypmbgc|cjmsxypnbcb|13609465|btnrnynjbjb|13685591|vbgppynnbnc|vbgppynpbrb|vbgppypgbnc|dvqpfcyqgblc|dvqpfcyqhbqb|dvqpfcyqhbzb|dvqpfcyqhbjc|dvqpfcyqjbdb|dvqpfcyqjbnc|73420192|dvqpfcyqkbcc|73420242|74553562|dvqpfcyqlbhc|74553632|dvqpfcyqmbcb|74553752|dvqpfcyqmblb|76716952|dvqpfcyqmbtb|76717032|dvqpfcyqmbdc|76717162|dvqpfcyqmbmc|81114612|81114662|87594802|87594902|dcvlmdyqqbcb|dcvlmdyqqblb|94080462|dcvlmdyqqbtb|94080202|94837102|94836942"
675499,32.736233,-97.119865,"Arlington Yoga Center","Arlington","15230441|15441583|11847250|14909880|14909904|14909684|zfmppynnbmb|ggmppynnbpb|ggmppynnbxb|rpcrpynnbfc|ggmppynnbhc|rpcrpynnbnc|bbzqpynpbcb|15046497|bbzqpynpblb|15119000|bbzqpynpbtb|15119019|bbzqpynpbmc|15578795|15578825|15578819|15578922|15578839|15578849|15578871|slgcqypcbfb|wlgcqypcblb|slgcqypcbnb|wlgcqypcbtb|15866055|slgcqypcbwb|wlgcqypcbdc|slgcqypcbgc|wlgcqypcbmc|slgcqypcbpc|slgcqypdbkb|mzvhqypdblb|dzvhqypdbqb|dzvhqypdbzb|16188800|slgcqypdbcc|mzvhqypdbdc|rzvhqypdbgc|dzvhqypdbjc|16568721|slgcqypdblc|mzvhqypfbcb|rzvhqypfbfb|16761092|mzvhqypfblb|fchpqypfbsb|mzvhqypfbtb|rzvhqypfbwb|fchpqypfbcc|mzvhqypfbdc|rzvhqypfbgc|fchpqypfblc|mzvhqypfbmc|ppvsqypgbgb|tqvsqypgbhb|crvsqypgbkb|vpvsqypgbmb|ppvsqypgbpb|tqvsqypgbqb|crvsqypgbsb|ppvsqypgbxb|tqvsqypgbzb|crvsqypgbcc|vpvsqypgbfc|qkbwndyqnbhb|qkbwndyqnbqb|qkbwndyqnbzb|qkbwndyqnbjc|qkbwndyqpbmb|qkbwndyqpbvb|qkbwndyqpbfc|qkbwndyqpbnc|93011722|qkbwndyqqbkb|87059632|qkbwndyqqbcc|qkbwndyqqblc|qkbwndyrcbgb|qkbwndyrcbpb|qkbwndyrcbxb|qkbwndyrcbhc|qkbwndyrdbcb|qkbwndyrdblb|qkbwndyrdbtb|qkbwndyrdbdc|qkbwndyrfbcb|qkbwndyrfblb"
675503,32.78258,-97.08955,"Elzie Odom Recreation Center","Arlington","drgskfyrdbgc|drgskfyrfbnb"
675510,32.784664,-97.09438,"The Fox and Hound","Arlington","8349761|10778766"
675511,32.757477,-97.10787,"Pappasito's Cantina","Arlington","12598628|15211222|15410581|14818125"
684987,32.680057,-97.11411,"Sweet Tomatoes","Arlington","7553708|7671666|22246841|9679586"
688937,32.681629,-97.111427,"Studio Movie Grill (Arlington)","Arlington","9849333|10001153|10374775|17405245|10359449|12929714|13693549|38265182|60722112|63040822|13863551|16968987"
692188,33.374978,-94.620206,"Movie Tavern - Arlington","Arlington","7961048|9255178|11445699|7958070|8953851|9113361|11360149|10972811|14386639|15686946|16503086|16866333|24625461"
693084,32.762469,-97.0659,"Bostons Restaurant & Sports Bar","Arlington","8206873|10990882|15092546|8661002|8697767|8697785|12786385|13216208|14046355|87009892"
696828,32.772026,-97.062881,"Reflections inside the Admiral Hotel","Arlington","12453755|15787564|16668677|16418755|21418651|24080581|23607651|32393432|8234281|8775832|11653962|12012221|19139931|20882111|czfkvypjbmc|cddrtypkbjb|cddrtypkbrb|cddrtypkbbc|cddrtypkbkc|pbdhxyplbwb|pbdhxyplbpc|pbdhxypmbkb|pbdhxypmbsb|qmhpccypmbcc|34448582|qmhpccypmblc|qmhpccypnbhb|qmhpccypnbqb|qmhpccypnbzb|qmhpccypnbjc|qmhpccyppbdb|qmhpccyppbmb|qmhpccyppbvb|qmhpccyppbfc|qmhpccyppbnc|51798092|cpzmvypkbrb|cpzmvyplbnb|cpzmvyppbmb"
698505,32.633367,-97.13249,"Pump it Up - Arlington","Arlington","11312928"
698851,32.75128,-97.082644,"Rangers Stadium","Arlington","10345632"
701794,32.679377,-97.131136,"The Cheesecake Factory","Arlington","10563511|10856592"
703002,32.737468,-97.101304,"Dyno Rock Indoor Climbing Gym","Arlington","83166512"
708663,32.677043,-97.141128,"Alley Cats","Arlington","16769704|44252792|62422482"
708793,32.680119,-97.129089,"The Parks at Arlington","Arlington","8499561|10155268|11356027|10480583"
711481,32.780154,-97.095726,"Southern Recipes Grill","Arlington","27321131|27256931"
711503,32.728989,-97.115005,"UTA Planetarium","Arlington","8341886|21674181|10363560|43196182|75478132|11561981|21753761"
711550,32.659456,-97.134985,"Sushi Yaa","Arlington","9210654|9616788|9829969|9861402|9902924|32082642|qkjzscyqhbpb|qkjzscyqlbfb|qkjzscyqmbsb|qkjzscyqpbmb|qkjzscyrcbgb|9805795|12709238|qljzscyqhbpb|qljzscyqmbsb|qljzscyrcbgb|qljzscyrdbcb"
711564,32.669617,-97.203354,"No Frills Grill & Sports Bar","Arlington","frwqnynjbkb|rvjrnynjbsb|rvjrnynjbcc|rvjrnynjblc|rvjrnynkbqb|rvjrnynkbzb|14080721|rvjrnynkbjc|rvjrnynlbdb|ngtdpynlbmb|14219243|ngtdpynlbvb|14310260|ngtdpynlbfc|ngtdpynlbnc|gspjpynmbrb|gspjpynmbbc|gspjpynmbkc|gspjpynnbgb|gspjpynnbpb|gspjpynnbxb|gspjpynnbhc|gspjpynpbcb|gspjpynpblb|tqfvpynpbtb|tqfvpynpbmc|tqfvpynqbjb|tqfvpynqbrb|tqfvpynqbbc|tqfvpypcbnb|tqfvpypcbwb|tqfvpypcbgc|tqfvpypcbpc|tqfvpypdbkb|tqfvpypdbsb|tqfvpypdbcc|tqfvpypdblc|tqfvpypfbkb|tqfvpypfbsb|tqfvpypfbcc|tqfvpypfblc|tqfvpypgbgb|tqfvpypgbpb|tqfvpypgbxb|tqfvpypgbhc|tqfvpyphbdb|tqfvpyphbmb|tqfvpyphbvb|tqfvpyphbfc|tqfvpypjbjb|tqfvpypjbrb|tqfvpypjbbc|tqfvpypjbkc|tqfvpypkbpb|tqfvpypkbxb|tqfvpypkbhc|tqfvpyplbcb|tqfvpyplblb|tqfvpyplbtb|tqfvpyplbdc|tqfvpyplbmc|tqfvpypmbqb|tqfvpypmbzb|tqfvpypmbjc|tqfvpypnbfb|tqfvpypnbnb|tqfvpypnbwb|tqfvpypnbgc|tqfvpypnbpc|tqfvpyppbkb|tqfvpyppbsb|tqfvpyppbcc|tqfvpyppblc|tqfvpypqbqb|tqfvpypqbzb"
724236,32.688768,-97.149443,"Unity Church of Arlington","Arlington","8345841|8439519"
726694,32.736958,-97.108533,"Arlington Museum of Art","Arlington","8458529|26793891|55148852|76703692|97946472|36008042"
731472,32.691585,-97.115908,"Sushi Domo","Arlington","53244072|15212843|qkjzscyrcbxb|15230998|qljzscyrcbxb"
732135,32.795521,-97.130548,"River Legacy Park","Arlington","13118921|11666384|8707079|8946545|15888208|11666504|14150229|14196069|15934334|14494994|14543020|hvlhpynmbgb|jqkkpynmbhb|mwlhpynmbjb|rnhlpynmbrb|mwlhpynmbrb|tnhlpynmbtb|svlhpynmbtb|14957667|wxjmpynnbrb|15051719|pdpdryphbpb|pdpdryphbqb|pdpdryphbrb|pdpdryphbvb|52715822|67367422|17505885|18535911|20182411|23203021|23284101|24750641|25230241|26371421|27309481|31957912|32756332|34538482|35246172|37500502|43141712|44021502|44738812|45390412|qlwrqcyqkbcb"
734413,32.735547,-97.103474,"J Gilligans Bar & Grill","Arlington","8523641|10701813|13211546|14628380|22270231|47663202"
734523,32.782406,-97.117842,"River Legacy Parks and River Legacy Living Science Center","Arlington","11291728|12322102|99524032|99524102|16803176|90840402"
735283,32.667645,-97.182688,"Cliff Nelson Park","Arlington","fblppypdbjb|fblppypdbbc|fblppypfbjb|fblppypfbbc|fblppypgbfb|fblppypgbwb|fblppyphbcb|fblppyphbtb|fblppyphbmc|fblppypjbjc|fblppypkbnb|fblppypkbwb|fblppypkbgc|fblppypkbpc|fblppyplbkb|fblppyplbcc|fblppyplblc|fblppypmbpb|fblppypmbxb|fblppypnbdb|fblppypnbvb|fblppypnbfc|dnrmgcyppbrb|dnrmgcyppbbc"
745705,32.67595,-97.19018,"On the Border","Arlington","8617292|8767293"
746289,32.665154,-97.082116,"Black Finn Restaurant","Arlington","11906386|16838231|11906168"
746389,32.693214,-97.125061,"Spare Time Lanes ","Arlington","8622695|13594110|13764405|14024398|14165099|14398674|14639219|14639474|kptnpynnbqb|kptnpynnbzb|kptnpynnbjc|kptnpynpbdb|kptnpynpbmb|qpfwpynpbvb|zpxwpynpbfc|zpxwpynpbnc|9806054|9862694|9903138|9973861|9988886|10122069|10164727|10222330|10282853|10315430|10366629|10366651|27329381"
746877,32.722694,-97.147583,"Chase Bank Building","Arlington","8626740|9516205|9093220|9635057|9093232|10280433|9093349|9093358|9936672|11638887|11389810|9936727|12037932|11864126|12037994|11864250|11864291|11864469|11864485|12038189|11864507|12038219|11864519|11864695|13600196|16093823|15534978|15534989|16833408|15535023|14594379|15535054|16919110|15535074|21453431|16919004|21785871|15535080|24945631|16919071|15535093|26332991|16919148|15535103|31872472|16919177|15535255|36032342|42198332|30144451|45857402|44210512|46674042|51706462|54676812|54688162|53291702|54534722|59391602|61795682|65043722|65731802|66035882|68228082|74713122|74858852|78544152|78724442|79604832|87241782|90551342|92033932|88393302|94335382|92196852|93028992|92768292|93515372|103154602|99135912|103158062|92768632|105564682|92768812|92768972|92769282|92769522|92769772|92770032|92770262|92770722|8116653|9461209|9485922|9631711|9867766|10018756|9868151|10140506|9868158|10584773|9868164|10765479|9868170|11047602|9868179|9868189|9868197|9868211|11718041|9868222|11871013|11871052|9868239|11865015|11871062|11865047|11871085|11865053|11871121|11865063|11871138|11871177|11865089|11871299|11865093|11871301|11865099|11871328|11865108|11871332|15548504|15548523|15554738|15560960|15561240|15561307|15802550|15820764|16110965|17143751|16492248|16492311|21785641|21786411|24945501|26332911|28010511|15555285|15555331|15555438|36032262|42198672|45859472|45859762|51704142|51706312|54687542|66036012|66036022|70834602|78724302"
753100,32.657135,-97.132457,"Arlington Skatium","Arlington","30287071"
754182,32.68012,-97.129091,"Cheesecake Factory","Arlington","7103473"
756824,32.631095,-97.136009,"Barnes and Noble","Arlington","101687932"
759508,32.75128,-97.082644,"Rangers Ballpark in Arlington","Arlington","11469918|10240555|9367780|13962105|60456732|11089891|11209502|13568815|29569171|63040502"
760528,32.697914,-97.111041,"Vandergriff Park","Arlington","99883192"
761946,32.684683,-97.11481,"America's Best Coffee","Arlington","94980582|96225932|96310682"
762057,32.785468,-97.108077,"River Legacy Parks","Arlington","34596252|34881082|89452152"
762902,32.648615,-97.15509,"Stovall Park","Arlington","86990262|90345972|106123412"
763633,32.736349,-97.106414,"Downtown Arlington Library","Arlington","88801342|9303716"
764075,32.652752,-97.094103,"Tails and Trails Dog Park","Arlington","7402229|7257229|10135051"
764083,32.784488,-97.094586,"Tails and Trails Dog Park","Arlington","76143052"
765026,32.760338,-97.114065,"Rolling Hills Country Club","Arlington","7258952"
768444,32.672905,-97.090227,"Mochalux Coffee & Tea Co","Arlington","5706403|5886001|7236231|8799116|10291983|12317669|16153908|36194982|80892502|80892972|80890682|16842565|tfvrqypfbcc|tfvrqypfblc|tfvrqypgbgb|tfvrqypgbpb|tfvrqypgbxb|tfvrqypgbhc|tfvrqyphbdb|tfvrqyphbmb|tfvrqyphbvb|tfvrqyphbfc|tfvrqyphbnc|tfvrqypjbjb|tfvrqypjbrb|tfvrqypjbbc|tfvrqypjbkc|tfvrqypkbgb|tfvrqypkbpb|tfvrqypkbxb|tfvrqypkbhc|tfvrqyplbcb|tfvrqyplblb|tfvrqyplbtb|tfvrqyplbdc|tfvrqyplbmc|tfvrqypmbqb|tfvrqypmbzb|tfvrqypmbjc|tfvrqypnbfb|tfvrqypnbnb|tfvrqypnbwb|tfvrqypnbgc|tfvrqypnbpc|50305362|95832662|80891442"
773065,32.736347,-97.106415,"Geroge W. Hawkes Central Library","Arlington","10268018|10862726|10357586|11029792"
775043,32.73526,-97.107769,"Levitt Pavillion for the Performing Arts","Arlington","24367151|67632452|11381743|11381752|8849291|10365224|11452153|11452187|12789866|17568490|22669502|26726331|41433942|60135492|58592942|58593102|58595872|58803782|58805272|56278132|74726232|76962862|57565152|8941654|24366481|69313132|70935912|92525132|70936432|24367601|70936912|14656443|14656541|14656614|17439917|16614281|17440030|22647932|22648112|26696021|26696921|26697631|26698011|26699941|26698651|63977892|57915662|57917522|57918242|57919302|57919642|57919952|57920772|57921352|77579702|77580212|77581212|77582452|77584332|77588382|77585612|77586752|prbjrypjbvb|33226372|33237332|79890882|74652512"
781379,32.733995,-97.092285,"Meadowbrook Recreation Center","Arlington","11639524"
782831,32.702297,-97.163997,"Veterans Park","Arlington","5929670|10061746"
783624,32.75424,-97.096081,"Buffalo Wild Wings","Arlington","8919560|17455300|13892798"
783747,32.734991,-97.109227,"Mission Arlington/Mission Metro","Arlington","7356764|10575446"
784793,32.760162,-97.091654,"Holiday Inn","Arlington","15047502|73461042"
787071,32.733995,-97.092285,"Meadowbrook Recreation Center","Arlington","8947032|11586236"
789296,32.755038,-97.061615,"MS Cafe","Arlington","11081096"
796304,32.487493,-91.971047,"BJ's Brewhouse","Arlington","9018553"
796652,32.676237,-97.149089,"Bobby Valentine's","Arlington","10172092"
798235,32.755774,-97.09888,"Birraporetti's","Arlington","16159200|17520109"
798378,32.755038,-97.061615,"MS Cafe - Upstairs Lounge","Arlington","9034806|10697634"
798992,32.708517,-97.129729,"Cornerstone Community Church","Arlington","9514347|9490662|15129239|9515494"
800015,32.681132,-97.068694,"Highpoint Church","Arlington","14753089"
801114,32.680475,-97.109502,"Gloria's","Arlington","17254255"
802088,32.760162,-97.091654,"Sporting News Grill in the Holiday Inn","Arlington","9064722|9311997|11788921|14852336|14941144|14067097|14147134|mxqkpynmbzb|mxqkpynpbcc|mxqkpynqbzb"
802119,32.755038,-97.061615,"MS Cafe Homestyle Kitchen & Bar","Arlington","9064889|10895464"
806115,32.706121,-97.065377,"Hyena's Comedy Night Club","Arlington","9357127"
810558,32.731806,-97.113857,"Geologic Building","Arlington","9136010"
812622,32.6755,-97.16902,"Movie Tavern","Arlington","69388802"
812637,32.734727,-97.109263,"Mission Arlington / Mission Metroplex","Arlington","88923912|88924172|86127382|10772133|10772218|10927789|11123155|11833363|90251472|88924492"
815873,32.70706,-97.122593,"Joey's Pizza","Arlington","9272808|6794059|6859047|6899299|7028501|7132233|7132259|7028503|8537001"
819618,32.62,-97.15,"Dave & Busters","Arlington","9261693|9309539|83652832"
820249,32.737118,-97.107049,"Arlington Parade of Lights","Arlington","9216964|11882784"
825365,32.758146,-97.096467,"Hooters of Arlington","Arlington","9264937"
828241,32.675292,-97.193422,"Hooters","Arlington","25227331|74556142"
830759,32.68074,-97.11113,"Dave & Busters","Arlington","10814929|11033586|16990410"
832170,32.749161,-97.065522,"Holiday Inn Express Six Flags ","Arlington","9329743|9403275|10787194|12136849"
833809,32.744511,-97.057732,"Cinemark Tinseltown Six Flags Mall","Arlington","11958553|9201663|9426646|9901858|10669874|10818180|10907313|10961257|10961450|10961518|11570702|11800514|11958480|12007323|12314804|12463812|12548102|12680633|12739063|12789727|12812099|13073486|13242889|13302098|13456294|13693475|13721359|14038967|14156225|14335924|14343994|14528637|14777931|14840887|15080644|15410117|15475442|15475499|15554848|15554867|16030476|16105001|16187546|16596444|16700295|17022060|18891661|20100771|21028441|22297231|23098041|24777921|25547451|25908081|27184841|36342072|49745532|51451792|52544172|53115072|56898722|76355412|104245922|68100292|27571881|73266342"
836220,32.736577,-97.115021,"UNIVERSITY OF TEXAS AT ARLINGTON","Arlington","9368030"
837599,32.706135,-97.119208,"Jamaica Gates Caribbean Cuisine Restaurant","Arlington","16377541"
841794,32.772964,-97.063431,"Reflections inside Admiral Hotel","Arlington","14248735|16356962|crzmvypkbbc|crzmvyplbwb|dvhpccypmbcc|dvhpccypnbzb|14668660|14585716|zdmnpynmbnc|dtcppynnbrb|zdmnpynnbzb|zdmnpynnbjc|dtcppynnbkc|nsctpynpbfb|nsctpynpbnb|nsctpynpbwb|ddwxpynqblb|ddwxpynqbtb|ddwxpynqbdc|ddwxpynqbmc|lmkdqypcbhb|lmkdqypcbqb|lmkdqypcbzb|lmkdqypcbjc|hpxjqypdbmb|hpxjqypdbvb|hpxjqypdbfc|37841052|40057762|14284806"
844553,32.671623,-97.133621,"TGI Fridays","Arlington","10365470|10429979|11373422"
850171,32.762591,-97.067274,"HILTON ARLINGTON","Arlington","9885074|83848152"
850742,32.709259,-97.151059,"coker's barbecue","Arlington","10001115|12341519"
853671,32.678684,-97.107124,"BlackFinn Restaurant and Saloon","Arlington","11163258|11050595|12052176|12619076|15991599|9941057|9935234|11163225|11246594|9796392"
858094,32.757645,-97.082173,"Arlington Sheraton Hotel (by the Ballpark)","Arlington","12251068"
858311,32.725177,-97.133619,"Fielder Park","Arlington","9572177"
858948,32.679516,-97.145454,"Mary & Jimmie Hooper Park","Arlington","cpmmpynnbfb"
863220,32.706121,-97.065377,"Hyenas Comedy Club","Arlington","7424060|7485432|7529489|7557965|7645400|12480072|12634199|12975414|7571108|7589856|8093629"
867729,32.685053,-97.130835,"MonteCarlos","Arlington","14861828"
877146,32.728987,-97.115008,"UTA  Texas Hall ","Arlington","16455770"
878161,32.681971,-97.126447,"Spaghetti Warehouse","Arlington","10860673"
879970,32.6755,-97.16902,"Abuelo's","Arlington","10835807|13871446"
880630,32.72034,-97.146218,"It's All Good Catering & Special Events","Arlington","12786868"
883994,32.724037,-97.114083,"Hooligan's Pub and Grub","Arlington","9790276|12651980|16634444"
885945,32.677859,-97.092146,"BJs Brewhouse","Arlington","9790001|9936571|13670399|16174210|23261141"
885983,32.731255,-97.114906,"UT Arlington / Mainstage Theater","Arlington","12166849"
889360,32.706121,-97.065377,"Hyenas Comedy Nightclub","Arlington","9836818|11452649"
890528,32.75301,-97.064199,"Texas Paliminas Buffet","Arlington","9846883"
895667,32.731884,-97.117737,"The PE Building","Arlington","9946311|9953072"
900864,32.65,-97.09,"BlackFinn Arlington","Arlington","9932537"
901507,32.731812,-97.11199,"University of Texas, Arlington ","Arlington","9937896|10032752"
908074,32.70021,-97.141015,"Arlington Unitarian Universalist Church","Arlington","rmzvpyqcbsb|32030162|35294192"
915381,32.760872,-97.056894,"Crown Plaza Suites","Arlington","60308312|63261972|67113222|71152482|75716142|75885712|82801012|80969192|89511182|98600462|86077922|105371952"
915457,32.735562,-97.101759,"Fuzzy's Taco Shop","Arlington","73324272|14640485|101624052"
936802,32.68074,-97.11113,"Splitsville-Luxury Lanes & Dinner Lounge","Arlington","11208896|11331223|11354924|11551267|11716209|11208936|11354948|11331248|10229390|12493726|11331310|11355322|11716316|12493561"
942277,32.76161,-97.081624,"Hurricane Harbor","Arlington","10548457"
943905,32.707396,-97.140006,"John B's","Arlington","dstmscyqqbhb|dstmscyqqbqb|dstmscyqqbzb|dstmscyqqbjc|dstmscyrcbdb|dstmscyrcbmb|dstmscyrcbvb|dstmscyrcbfc|dstmscyrcbnc|dstmscyrdbjb|dstmscyrdbrb|dstmscyrdbbc|dstmscyrdbkc|qjtmscyqqbhb|qjtmscyqqbqb|qjtmscyqqbzb|qjtmscyqqbjc|qjtmscyrcbdb|qjtmscyrcbmb|qjtmscyrcbvb|qjtmscyrcbfc|qjtmscyrcbnc|qjtmscyrdbjb|qjtmscyrdbrb|qjtmscyrdbbc|qjtmscyrdbkc|dcphjdyqqbhb|dcphjdyqqbqb|dcphjdyqqbzb|dcphjdyqqbjc|dcphjdyrcbdb|dcphjdyrcbvb|dcphjdyrcbfc|dcphjdyrcbnc|dcphjdyrdbjb|dcphjdyrdbrb|dcphjdyrdbbc|dcphjdyrdbkc|cpzmvyqqbqb|cpzmvyrcbmb"
946963,32.672889,-97.114838,"China King","Arlington","14528114|15029465|57743132|qkjzscyqgbkc|qkjzscyqjbcb|qkjzscyqlbpc|qkjzscyqnbqb|qkjzscyqqbkb|14527995|15027488|57743622|qljzscyqgbkc|qljzscyqjbcb|qljzscyqlbpc|qljzscyqnbqb|qljzscyqqbkb|14528203"
947054,32.678322,-97.10807,"Houlihans","Arlington","10163816|10425698|15302429|10954256"
948850,32.687468,-97.131368,"Spring Creek BBQ","Arlington","mqvqnynhbpc"
949581,32.746807,-97.059547,"THE INC LOUNGE","Arlington","10333428|10517583|10687356|10687383|10789533|10789570|10921424|10921709|11083758|11083789|11083851|11289220|11302319|11312207|11336658|11496964|11496979|11536284|11536298|11660449|11660457|11663009|11856050|11963820|12006793|12006807"
957751,32.659784,-97.115476,"River Legacy Park","Arlington","16961379"
958734,32.734245,-97.105559,"The Potager","Arlington","11452697|81162582|11811156"
960432,32.680492,-97.108925,"Splitsville Lanes","Arlington","10425770|10905818|15520045|10623873|10728012|10831624|10967729|11716152|11805959|10623824|10719495|10824497|10967691|11208557|11331166|11354858|11550547|11694710|11805118|11917712|11982602|11795819|12493629|11286094|10741241|11795714"
962838,32.751012,-97.082056,"Texas Rangers Ballpark","Arlington","13197056|22477021|26990321|63438642|73687712|80927532"
963269,32.68163,-97.111426,"Studio Movie Grill","Arlington","17200001"
963552,32.759118,-97.095472,"Chili's","Arlington","79662542"
969905,32.680544,-97.106648,"Melting Pot of Arlington","Arlington","16173694|17122453|18853431|32537802|32538122|32538162|46785892|46787432|55610032|60395412|64598562|70061942|73162292|77214002|82520472|87008172|92360562|93562072|93562592|93562792|88256982|95982272"
975026,32.749462,-97.096891,"Dallas Cowboys Stadium","Arlington","11494904|11381098|11215209|11255323|15792629|32804872|15212439|43903412|82169992"
980059,32.696384,-97.110298,"Vandergriff Park","Arlington","fblppynnbwb|fblppynpbsb|fblppynpblc|fblppypcbfc"
989490,32.73643,-97.110228,"Theater Arlington","Arlington","10675119|10847000"
989571,32.706009,-97.049286,"Thanh Thanh Restaurant","Arlington","13363637|13860330|16174634|17457259|84677882|104701992"
1003271,32.722252,-97.17001,"Shady Valley Country Club","Arlington","10801869|79298912"
1004187,32.633076,-97.152092,"Chuy's","Arlington","11849592|12390098|12601304|12750668|13186089|13468991|13787222|14327222|14746095|15436953|15702695|16825090|17324645|18745641|22832121|27588561|32548192|41431002|43601382|47286262|50108272|55558112|59324972|63039002|72071242|76735122|80908772|85238492"
1005037,32.708471,-97.138625,"Bomber Subs","Arlington","10819604"
1005984,32.68074,-97.11113,"Piranha Killer Sushi","Arlington","qkjzscyqgbbc|qljzscyqgbbc"
1007331,32.675409,-97.091859,"QT","Arlington","10840148|11031568|14832480|15054648|16130269|16896412|15596629|31291952|41078312|57672262|69365042|76937752|79052532|87017382|85755762|95762342|104669102|104278752|102405832"
1008065,32.785201,-97.090147,"Golf Center of Arlington","Arlington","11568909"
1011767,32.755195,-97.06654,"3rd Base","Arlington","10877227|10877182"
1012488,32.752887,-97.06667,"Humperdinks Restaurant and Brewery","Arlington","10883551|14200589|14195803|14195821|14688152|17071406|17071428|19229741|71219162|71219372|71219712|qknhjcypqblb|qknhjcypqbtb|qknhjcyqcbhb|qknhjcyqcbqb|qknhjcyqcbzb|qknhjcyqcbjc|qknhjcyqdbdb|qknhjcyqdbvb|qknhjcyqdbfc|qknhjcyqfbcb|qknhjcyqfblb"
1020259,32.682075,-97.132866,"Barnes & Noble Bookstore","Arlington","12197262|12197189"
1021473,32.687435,-97.184418,"Dave's Place","Arlington","11630632|12151966|14582787"
1023467,32.728987,-97.115008,"The University of Texas at Arlington","Arlington","97167622"
1024345,32.677811,-97.088547,"Mimi's Cafe","Arlington","10991335"
1028103,32.68481,-97.132181,"Rockfish Seafood Grill","Arlington","11028249"
1032747,32.680491,-97.109096,"Fish City Grill","Arlington","11077846"
1047453,33.129093,-96.768665,"Dallas Cowboys Stadium","Arlington","61478442|61478262|76408652|49793472|67329372|66042522|76095912"
1048376,32.773041,-97.096312,"Rack Daddys","Arlington","25028541|ckwlxyplbjb|28498401"
1048579,32.665154,-97.082116,"BLACKFINN American Saloon","Arlington","11006081|11622333|11853781|11755362|12614058|12889918|12889966|13913313|14139452|15080418|15080523|15884860|19584581|28343291|75153612|16578124|16838155|16838472|44137182"
1050678,32.677086,-97.134962,"Private Residence","Arlington","17140283"
1055842,32.737112,-97.055939,"Marie Reds","Arlington","11311082"
1056039,32.733641,-97.102202,"Levitt Pavilion","Arlington","13797899|13898728|77580652|75651152"
1057874,32.740622,-97.046431,"Diamond Jim's Saloon","Arlington","96066552|qpxrbfyrcbfb|qpxrbfyrcbwb|qpxrbfyrcbgc|qpxrbfyrcbpc|qpxrbfyrdbkb|qpxrbfyrdbsb|qpxrbfyrdbcc|qpxrbfyrdblc|96847812|103318672|96065472|qlxrbfyrcbfb|qlxrbfyrcbnb|qlxrbfyrcbwb|qlxrbfyrcbgc|qlxrbfyrdbkb|qlxrbfyrdbsb|qlxrbfyrdbcc|qlxrbfyrdblc|96065042|qcwrbfyrcbfb|qcwrbfyrcbnb|qcwrbfyrcbgc|qcwrbfyrcbpc|qcwrbfyrdbkb|qcwrbfyrdbsb|qcwrbfyrdbcc|qcwrbfyrdblc|104613752|16544708"
1057971,32.612963,-97.141662,"Tommy's Oasis","Arlington","11304333|16432789|11305214"
1059263,32.756325,-97.098541,"Social Bakehouse Cafe","Arlington","72303792"
1075819,32.62289,-97.166171,"Zombie Manor ","Arlington","14196310|14598539|16138235|30641941|57119862|85984062"
1081005,32.683517,-97.130024,"Blue Cow Coffee Co. ","Arlington","12463521|12950302"
1084643,32.665154,-97.082116,"Boudreaux's Cajun Kitchen","Arlington","13071611"
1088058,32.758742,-97.076973,"Texas Land and Cattle Steakhouse","Arlington","11607715"
1089587,32.731467,-97.147607,"El Gabacho's Tex Mex Grill","Arlington","11592854|15646897"
1089597,32.783236,-97.09402,"Primo Coffee & Tea","Arlington","11592880"
1089614,32.73705,-97.110116,"Theatre Arlington","Arlington","13987671|14343884|14746269|15702248|17096297|23908791|28434731|43900322|48172442|72072972|78064132|81133362|96321842|79412782|41204532"
1097988,32.736009,-97.113159,"Mi Tierra Latin Fusion","Arlington","11665490"
1098186,32.749206,-97.095933,"Dallas Cowboys Stadium","Arlington","11759182|15656324"
1099047,32.67883,-97.10858,"Pluckers Wing Bar @ the Arlington Highlands","Arlington","11720346|11665922|12099455|12134213|12226172|12292884|15017406|15432616|26713521|11657782"
1108449,32.743113,-97.105152,"Eclectic Expressions","Arlington","12089679"
1108544,32.606734,-97.115426,"Jeff & Lauren's House","Arlington","14428857|15159525|15469037|26718081|11764386"
1108849,32.691292,-97.148338,"Desi's: Near Bowen and Mayfield, just north of 20","Arlington","11793912"
1114603,32.680575,-97.110836,"Splitsville","Arlington","12244487|12244458"
1117430,32.736159,-97.113658,"McDonalds","Arlington","11849462"
1119135,32.731938,-97.116358,"UT Arlington - Life Sciences Building","Arlington","11864899"
1132638,32.689059,-97.13103,"China Harbor Buffet","Arlington","58960872|qkjzscyqhbhc|qkjzscyqkbbc|qkjzscyqmblc|qkjzscyqqbcc|58963192|qljzscyqhbhc|qljzscyqkbbc|qljzscyqmblc|qljzscyqqbcc"
1136219,32.683459,-97.132867,"Ice at the Parks ","Arlington","12181771|12247441|12317505|12212484"
1141129,32.739584,-97.110363,"Arlington Life Shelter ~ Business Office","Arlington","72065852|73314842"
1143868,32.751777,-97.109966,"Metro Academy","Arlington","12175318|12215347|12308844|12379817|12438423|12506514|12698965|12809272|12835667|12899676|13381521|13939653|ldpdpynlbcb|ldpdpynlblb|ldpdpynlbtb|ldpdpynlbdc|ldpdpynlbmc|ldpdpynmbqb"
1146320,32.779042,-97.083243,"Brenda's apartment","Arlington","14182765"
1162287,32.722622,-97.114665,"Starbucks","Arlington","nqvgnyngbdb"
1165957,32.680475,-97.109502,"WineStyles - Arlington ","Arlington","16433156"
1189981,32.659984,-97.136277,"Sushi Yaa","Arlington","31277862"
1190669,32.764854,-97.079281,"Devie Richards' House","Arlington","13158110"
1198392,32.749727,-97.111801,"Prince Lebanese Grill","Arlington","14883102|44104972"
1200067,32.64442,-97.13422,"Istanbul Grill","Arlington","60874452"
1201276,32.680475,-97.109502,"BlackFinn American Saloon","Arlington","16299249"
1202807,32.673848,-97.191963,"Fuzzy's Taco Shop","Arlington","15088284"
1213036,32.663937,-97.10364,"Mandola's Italian Market","Arlington","12832469"
1225966,32.737721,-97.104741,"Arlington Farmers Market","Arlington","13788387"
1228596,32.684196,-97.132691,"Pure Bliss Natural Frozen Yogurt","Arlington","12998312"
1252303,32.675749,-97.193415,"River Legacy Park","Arlington","13252216|13458054"
1254041,32.709202,-97.135879,"Los Pastores","Arlington","13271995"
1260071,32.685161,-97.130882,"Thai House Restaurant","Arlington","14679255|14678880"
1272715,32.673884,-97.134205,"Romano's Macaroni Grill","Arlington","39288552"
1285359,32.711766,-97.177313,"Clarence Foster Park","Arlington","cnrpnynjbhb|cnrpnynkbgc|clgbryphbsb|clgbryphbcc|clgbryphblc"
1288513,32.735591,-97.097352,"QT Gas Station","Arlington","13680526|44604782|82019082|86317282|88993412"
1289635,32.75864,-97.076541,"On the Border - N Arlington","Arlington","13693795"
1294313,32.787987,-97.114807,"River Legacy Park (Green Oaks Entrance)","Arlington","14167833|14513610|14798471|qnhlpynmbzb|ggmjpynmbzb|mbnmpynmbbc|pbnmpynmbbc|14805537|qpxlpynmbfc|dcmnpynmbkc|pbnmpynmbkc|gbhmpynmbmc|14871342|jsxnpynmbnc|gnlmpynnbfb|xbnmpynnbfb|dcmnpynnbgb|pbnmpynnbgb|gswnpynnbjb|dcmnpynnbpb|pbnmpynnbpb|gswnpynnbrb|vlbqpynnblb|wwcqpynnbwb|vndnpynnbxb|tmjrpynnbxb|gswnpynnbbc|dpsppynnbdc|15075998|gnlmpynnbwb|gqtppynnbgc|vndnpynnbhc|tmjrpynnbhc|nhhmpynnbkc|gswnpynnbkc|dpsppynnbmc|14517072|gnlmpynnbpc|gqtppynnbpc|vndnpynpbcb|tmjrpynpbcb|xfnrpynpbfb|gswnpynpbfb|15341344|wdhlpynnbvb|gnlmpynpbkb|gqtppynpbkb|vndnpynpblb|tmjrpynpblb|xfnrpynpbnb|gswnpynpbnb|twrtpynpbrb|gnlmpynpbsb|gqtppynpbsb|vndnpynpbtb|xfnrpynpbwb|gqtppynpbcc|15221970|gqtppynpblc|vndnpynpbmc|xfnrpynqbcb|dpsppynqbfb|gqtppynqbhb|vndnpynqbjb|xfnrpynqblb|dpsppynqbnb|vndnpynqbrb|xfnrpynqbtb|gqtppynqbzb|vndnpynqbbc|xfnrpynqbdc|gqtppypcbdb|jqdcqypcbfb|tmjrpypcbfb|xfnrpypcbhb|dpsppypcbkb|rgzbqypcblb|ngndqypcblb|jqdcqypcbnb|xfnrpypcbqb|dpsppypcbsb|rgzbqypcbtb|jqdcqypcbwb|xfnrpypcbzb|dpsppypcbcc|rgzbqypcbdc|ngndqypcbdc|gcbdqypcbfc|jqdcqypcbgc|xfnrpypcbjc|dpsppypcblc|rgzbqypcbmc|ngndqypcbmc|jqdcqypcbpc|xfnrpypdbdb|jqdcqypdbkb|jqdcqypdbsb|hjlkqypdbwb|rxtmqypdbbc|jqdcqypdbcc|hjlkqypdbgc|rxtmqypdbkc|vfpnqypfbdb|hjlkqypfbfb|rxtmqypfbjb|jqdcqypfbkb|hjlkqypfbnb|rxtmqypfbrb|jqdcqypfbsb|dvvqqypfbbc|jqdcqypfbcc|fgqqqypfbfc|qkqsqypfbkc|fgqqqypfbnc|dzrsqypgbfb|lssrqypgbgb|hgbtqypgbjb|dzrsqypgbnb|zhpsqypgbnb|lssrqypgbpb|hgbtqypgbrb|cbfwqypgbtb|dzrsqypgbwb|qjpsqypgbwb|lssrqypgbxb|qjpsqypgbgc|dzrsqypgbgc|lssrqypgbhc|hgbtqypgbkc|cbfwqypgbmc|dnhxqyphbcb|hgbtqyphbgb|qlczqyphbkb|dzrsqyphblb|lssrqyphbmb|qlczqyphbsb|dzrsqyphbtb|lssrqyphbvb|pgvcryphbxb|cpgbryphbzb|qlczqyphbcc|dzrsqyphbdc|pscdryphbhc|cpgbryphbjc|qlczqyphblc|dzrsqyphbmc|lssrqyphbnc|pqxvryphbpc|pscdrypjbcb|cpgbrypjbdb|dzrsqypjbhb|lssrqypjbjb|pqxvrypjbkb|cpgbrypjbmb|dzrsqypjbqb|lssrqypjbrb|pqxvrypjbsb|cpzltypjbtb|cwlgtypjbtb|cpgbrypjbvb|dzrsqypjbzb|lssrqypjbbc|pqxvrypjbcc|cwlgtypjbdc|cpgbrypjbfc|dzrsqypjbjc|lssrqypjbkc|cpgbrypjbnc|24188851|pqxvrypkbhb|cwlgtypkbjb|cpgbrypkbkb|dzrsqypkbnb|lssrqypkbpb|cpgbrypkbsb|pcxmvypkbwb|lssrqypkbxb|cwlgtypkbbc|cpgbrypkbcc|pcxmvypkbgc|lssrqypkbhc|cwlgtypkbkc|cpgbrypkblc|pcxmvypkbpc|lssrqyplbcb|cwlgtyplbfb|cpgbryplbgb|pcxmvyplbkb|lssrqyplblb|cwlgtyplbnb|cpgbryplbpb|pcxmvyplbsb|lssrqyplbtb|cwlgtyplbwb|cpgbryplbxb|pcxmvyplbcc|lssrqyplbdc|cwlgtyplbgc|dzrsqyplblc|pcxmvyplblc|cwlgtyplbpc|31190542|pcxmvypmbgb|cwlgtypmbkb|32937962|pcxmvypmbpb|cwlgtypmbsb|pcxmvypmbxb|cwlgtypmbcc|32212922|pcxmvypmbhc|drnqccypmblc|pcxmvypnbdb|34779322|drnqccypnbhb|pcxmvypnbmb|drnqccypnbqb|pcxmvypnbvb|drnqccypnbzb|pcxmvypnbfc|drnqccypnbjc|37513382|pcxmvypnbnc|drnqccyppbdb|pcxmvyppbjb|drnqccyppbmb|pcxmvyppbbc|drnqccyppbfc|pcxmvyppbkc|drnqccypqbkb|drnqccypqbsb|drnqccypqbcc|drnqccypqblc|drnqccyqcbgb|drnqccyqcbpb|48781272|qcqvmcyqdblb|qcqvmcyqdbtb|qcqvmcyqdbdc|52257672|qcqvmcyqdbmc|pcxmvyqfbgb|drnqccyqcbxb|drnqccyqfbkb|qcqvmcyqfbkb|dmkhqcyqfbpb|drnqccyqfbsb|qcqvmcyqfbsb|dmkhqcyqfbxb|dmkhqcyqfbhc|drnqccyqfblc|qvthrcyqgbcb|qvthrcyqgblb|drnqccyqgbpb|qvthrcyqgbtb|drnqccyqgbxb|qvthrcyqgbdc|drnqccyqgbhc|qvthrcyqgbmc|drnqccyqhbdb|drnqccyqhbmb|drnqccyqhbvb|drnqccyqhbfc|drnqccyqhbnc|drnqccyqjbjb|drnqccyqjbrb|drnqccyqjbbc|drnqccyqjbkc|drnqccyqkbgb|qgwvbdyqkbpb|qgwvbdyqkbxb|pcxmvyqkbdc|qgwvbdyqkbhc|qgwvbdyqlbcb|76351902|qgwvbdyqlblb|qgwvbdyqlbtb|qgwvbdyqlbdc|qgwvbdyqlbmc|qgwvbdyqmbhb|qgwvbdyqmbqb|qgwvbdyqmbzb|qgwvbdyqmbjc|qgwvbdyqnbfb|qgwvbdyqnbnb|qgwvbdyqnbwb|qgwvbdyqnbgc|qgwvbdyqnbpc|89132692|qgwvbdyqpbsb|qgwvbdyqpbcc|qgwvbdyqpblc|qgwvbdyqqbhb|93621332|qgwvbdyqqbqb|95339972|qgwvbdyqqbzb|qgwvbdyqqbjc|qgwvbdyrcbvb|qgwvbdyrcbfc|qgwvbdyrcbnc|qgwvbdyrdbjb|qgwvbdyrdbrb|qgwvbdyrdbbc|qgwvbdyrdbkc|qgwvbdyrfbjb|qgwvbdyrfbrb"
1296947,32.664024,-97.134102,"Pho 95 -The Village at Sport Centre","Arlington","qkjzscyqpbfc|13780784"
1299641,32.849461,-97.085288,"Cowboy Stadium","Arlington","104491862"
1308658,32.706785,-97.16253,"Veterans Park","Arlington","16737627|16781707|17089097|zrwcqypkbfc|39610842"
1308774,32.652912,-97.144626,"Heidi's place","Arlington","15151366|27416221|29084781|35292662|39244752"
1317667,32.750263,-97.131713,"Beauty and Beyond Personal Enhancement Center","Arlington","17215396|17800331|19165091|19358291|pfjlzyplbgc|pfjlzyplbpc|pfjlzypmbkb"
1317898,32.741664,-97.05663,"Boneyard Haunted House","Arlington","14046294|14108238|30647611|86998932"
1323113,32.641811,-97.133507,"Bagel Boyz Deli","Arlington","14107890"
1325219,32.72449,-97.114377,"Lone Star Comics","Arlington","13732272"
1329111,32.712997,-97.164766,"Massage Therapy Wellness Center","Arlington","bqjcpynlbhb|nqjcpynlbqb|bqjcpynmbdb|bqjcpynnbkb|bqjcpynpbgb|bqjcpynqbdb|bqjcpypdbfb|16601540|13974173|14552348|14605497|15005793|15680048|15870360|15920964|16037481|16190226|pkqmqypdbdc|pkqmqypfbdc|16793391|pkqmqypgbjc|pkqmqyphbgc|pkqmqypjblc|pkqmqypkbjc|pkqmqyplbfc|pkqmqypmbkc|pkqmqypnbhc|pkqmqyppbdc|pkqmqypqbkc|pkqmqyqcbgc|pkqmqyqdblc|pkqmqyqfbkc|pkqmqyqgbgc|pkqmqyqhbdc|pkqmqyqjbjc|pkqmqyqkbgc|pkqmqyqlblc|pkqmqyqmbhc|14987014|15016591|15398522|15680071|15920980|mkqmqypdbdc|16190160|mkqmqypfbdc|17048983|17055994|mkqmqypgbjc|mkqmqyphbgc|mkqmqypjblc|24188041|ccchwypkbbc|mkqmqypkbjc|ccchwyplbwb|mkqmqyplbfc|25016741|ccchwypmbcc|mkqmqypmbkc|34716882|34711412|ccchwypnbzb|35995532|mkqmqypnbhc|35993902|dlmkdcypnbwb|dlmkdcyppbfb|dkndgcyppbkb|38395692|39706782|dkndgcyppbsb|dkndgcyppbcc|mkqmqyppbdc|dlmkdcypqbcb|38397062|dkndgcypqbhb|42629052|dlmkdcyqcbhb|mkqmqyqcbgc|qqzbmcyqcblc|dlmkdcyqdbdb|qqzbmcyqdbhc|qmtwpcyqdblc|dlmkdcyqfbcb|qmbzrcyqfbkc|dlmkdcyqgbhb|qmbzrcyqgbgc|qqzbmcyqgblc|dlmkdcyqhbfb|qmbzrcyqhbdc|qqzbmcyqhbjc|dlmkdcyqjbkb|qqzbmcyqjbfc|qmbzrcyqjbjc|dlmkdcyqkbhb|dlmkdcyqlbdb|qqzbmcyqlbhc|qmbzrcyqlblc|dlmkdcyqmbjb|qmbzrcyqmbhc|dlmkdcyqnbgb|82702282|dlmkdcyqpbcb|qmbzrcyqnbfc|qqzbmcyqpbgc|dlmkdcyqqbjb|qmbzrcyqqbpb|qqzbmcyqqbdc|dlmkdcyrcbfb|dqzxwdyrcblb|qqzbmcyrcbjc|dlmkdcyrdbkb|dqzxwdyrdbqb|qqzbmcyrdbfc|75373912"
1330425,32.680475,-97.109502,"Arlington Improv","Arlington","30843311|99119262|17389823|93384602|95788142|97306672|101970982|103159812"
1332729,32.66706,-97.228577,"Houlihan's","Arlington","17575245"
1334201,32.75882,-97.11512,"Tom's Burger and Grill","Arlington","14243531"
1337824,32.67272,-97.198588,"Reed's American Grill Tavern","Arlington","15904021"
1339267,32.640387,-97.133691,"Tollie's Barbecue","Arlington","14308032"
1340301,32.757051,-97.102311,"Calloway's Nursery","Arlington","59268682"
1357138,32.659303,-97.1218,"Arlington Library Southeast Branch","Arlington","86014702"
1361944,32.660006,-97.133161,"Ton's Mongolian Grill","Arlington","14613682|qkjzscyqkbjb|14597942|qljzscyqkbjb"
1362576,32.680753,-97.129208,"AMC The Parks at Arlington","Arlington","89550082"
1363655,32.755769,-97.098923,"Birra Poretti's Italian Restaurant","Arlington","15300586"
1364604,32.680475,-97.109502,"Dos Pianos Restaurant & Dueling Piano Bar","Arlington","20263761|23394241|21263391|tjlgpynmbhb|tjlgpynmbqb|tjlgpynmbzb|tjlgpynmbjc|tjlgpynnbfb|tjlgpynnbnb|tjlgpynnbwb|tjlgpynnbgc|tjlgpynnbpc|tjlgpynpbkb|tjlgpynpbsb|tjlgpynpbcc|tjlgpynpblc|tjlgpynqbhb|tjlgpynqbqb|tjlgpynqbzb|tjlgpynqbjc|tjlgpypcbmb|tjlgpypcbvb|tjlgpypcbfc|tjlgpypcbnc|tjlgpypdbjb|tjlgpypdbrb|tjlgpypdbbc|tjlgpypdbkc|tjlgpypfbjb|tjlgpypfbrb|tjlgpypfbbc|tjlgpypfbkc|tjlgpypgbfb|tjlgpypgbnb|tjlgpypgbwb|tjlgpypgbgc|tjlgpyphbcb|tjlgpyphblb|tjlgpyphbtb|tjlgpyphbdc|tjlgpyphbmc|tjlgpypjbhb|tjlgpypjbqb|tjlgpypjbzb|tjlgpypjbjc|tjlgpypkbfb|tjlgpypkbnb|tjlgpypkbwb|tjlgpypkbgc|tjlgpypkbpc|tjlgpyplbkb|tjlgpyplbsb|tjlgpyplbcc|tjlgpyplblc|tjlgpypmbgb|tjlgpypmbpb|tjlgpypmbxb|tjlgpypmbhc|tjlgpypnbdb|tjlgpypnbmb|tjlgpypnbvb|tjlgpypnbfc|tjlgpypnbnc|tjlgpyppbjb|tjlgpyppbrb|tjlgpyppbbc|tjlgpyppbkc|tjlgpypqbgb|tjlgpypqbxb|tjlgpypqbhc|tjlgpyqcbcb|tjlgpyqcblb|tjlgpyqcbtb|tjlgpyqcbdc|tjlgpyqcbmc|tjlgpyqdbhb|tjlgpyqdbqb|tjlgpyqdbzb|tjlgpyqdbjc|tjlgpyqfbgb|tjlgpyqfbpb|tjlgpyqfbxb|tjlgpyqfbhc|tjlgpyqgbcb|tjlgpyqgblb|tjlgpyqgbtb|tjlgpyqgbdc|tjlgpyqgbmc|tjlgpyqhbjb|tjlgpyqhbrb|tjlgpyqhbbc|tjlgpyqhbkc|tjlgpyqjbfb|tjlgpyqjbnb|tjlgpyqjbwb|tjlgpyqjbgc|tjlgpyqkbcb|tjlgpyqkblb|tjlgpyqkbtb|tjlgpyqkbdc|tjlgpyqkbmc|tjlgpyqlbhb|tjlgpyqlbqb|tjlgpyqlbzb|tjlgpyqlbjc|tjlgpyqmbdb|tjlgpyqmbmb|tjlgpyqmbvb|tjlgpyqmbfc|tjlgpyqmbnc|tjlgpyqnbkb|tjlgpyqnbsb|tjlgpyqnbcc|tjlgpyqnblc|tjlgpyqpbgb|tjlgpyqpbpb|tjlgpyqpbxb|tjlgpyqpbhc|tjlgpyqqbmb|tjlgpyqqbvb|tjlgpyqqbfc|tjlgpyqqbnc|tjlgpyrcbjb|tjlgpyrcbrb|tjlgpyrcbbc|tjlgpyrcbkc|tjlgpyrdbfb|tjlgpyrdbnb|tjlgpyrdbwb|tjlgpyrdbgc"
1375716,32.683924,-97.132851,"Corner Bakery Cafe","Arlington","41586962"
1378176,32.758475,-97.108934,"Pappasito's Cantina","Arlington","100214892"
1382372,32.731768,-97.114561,"UT Arlington","Arlington","14853703"
1382403,32.640356,-97.133735,"Habanero's Fresh Mexican Cantina","Arlington","14731562"
1383189,32.73,-97.110997,"UTA Planetarium","Arlington","99153022|87458332|103235492"
1386714,32.773041,-97.096312,"Bijou Lounge & Restaurant","Arlington","qgrppynnbkb|15018380|qgrppynnbsb|qgrppynnbcc|qgrppynnblc|qgrppynpbgb|qgrppynpbpb|qgrppynpbxb|qgrppynpbhc"
1398450,32.751375,-97.08781,"Richard Greene Linear Park","Arlington","18513931"
1401434,32.735687,-97.108066,"Arlington Central Library","Arlington","50108252|59955072|61446802|68161332|71794832"
1402533,32.735092,-97.106155,"Health and Harmony House","Arlington","20348271"
1403449,32.758371,-97.098331,"Louie Louie's Piano Bar","Arlington","15303136|15496464|15701930|16056921|17414761|16503442|69543702|81997162"
1409582,32.767316,-97.097139,"Starbucks (N Arlington)","Arlington","15063280"
1410321,32.746407,-97.058364,"Mac's Tavern and Grill","Arlington","qhlpjcyqcbpb|qhlpjcyqcbxb|69771442|qkpgjcyqcbgb|qkpgjcyqcbxb|dnpgjcyqcbgb|dnpgjcyqcbpb|dnpgjcyqcbxb|cpzmvyqcbpb"
1410641,32.752496,-97.065187,"Six Flags Over Texas","Arlington","18890221|24711391|72546162|81537632"
1411278,32.682849,-97.121313,"Steak and Shake","Arlington","16274582"
1417522,32.65951,-97.14702,"The Church on Rush Creek","Arlington","mkftpynpbrb|16193509|17050353|47664022"
1424440,32.756322,-97.09835,"BoomerJacks (Arlington)","Arlington","16089792|15388260|16202376|16844867|16718664|17076697|24618021|24881961|26720171|26722611|26722851|75151922|16089494|16089773|19879351|dxnpcdyqlbtb|dxnpcdyqmbzb|drnpcdyqnbfb|dxnpcdyqnbfb|dxnpcdyqnbwb|qqkpsdyqpbcc|qqkpsdyqqbhb|qqkpsdyrcbdb|qqkpsdyrdbjb"
1433634,32.671844,-97.201552,"Little Os Patio Grill","Arlington","15511227|15628924|19382801|plwlsypjbcb|plwlsypjblb|plwlsypjbtb|plwlsypjbdc|15506256|15628705|15742071|cdtrsypjblb|cdtrsypjbtb|cdtrsypjbdc|15628914"
1442728,32.671844,-97.201552,"Little O's Patio & Grill","Arlington","17188587|17393403|20215011|35650982|19383001|ctwlsypjbcb|cftrsypjblb|60455082|79513582|15631001|qjqshcyqcbmb|qjqshcyqcbvb|qjqshcyqcbfc|qjqshcyqcbnc|qjqshcyqdbjb|qjqshcyqdbrb|qjqshcyqdbbc|qjqshcyqdbkc|qjqshcyqfbhb|qjqshcyqfbqb|qjqshcyqfbzb|qjqshcyqfbjc|qjqshcyqgbdb|qjqshcyqgbmb|qjqshcyqgbvb|qjqshcyqgbfc|qjqshcyqgbnc|qjqshcyqhbkb|qjqshcyqhbsb|qjqshcyqhbcc|qjqshcyqjbgb|qjqshcyqjbpb|qjqshcyqjbxb|qjqshcyqkbdb|qjqshcyqkbmb|qjqshcyqkbvb|qjqshcyqkbfc|qjqshcyqkbnc|qjqshcyqlbjb|qjqshcyqlbrb|qjqshcyqlbbc|qjqshcyqlbkc|qjqshcyqmbnb|qjqshcyqmbwb"
1450005,32.754612,-97.061409,"Mariano's Mexican Cuisine","Arlington","39287992"
1451461,32.68148,-97.200826,"St John Presbyterian Church","Arlington","xmmbqypcbjb|bnmbqypcbjb|xmmbqypcbrb|bnmbqypcbrb|xmmbqypcbbc|bnmbqypcbbc|xmmbqypcbkc|bnmbqypcbkc|xmmbqypdbfb|bnmbqypdbfb|xmmbqypdbnb|bnmbqypdbnb|xmmbqypdbwb|bnmbqypdbwb|xmmbqypdbgc|bnmbqypdbgc|xmmbqypfbfb|bnmbqypfbfb|xmmbqypfbnb|bnmbqypfbnb|xmmbqypfbwb|bnmbqypfbwb|xmmbqypfbgc|bnmbqypfbgc|xmmbqypfbpc|bnmbqypfbpc|xmmbqypgbkb|bnmbqypgbkb|xmmbqypgbsb|bnmbqypgbsb|bnmbqypgbcc|xmmbqypgblc|bnmbqypgblc|xmmbqyphbhb|bnmbqyphbhb|xmmbqyphbqb|bnmbqyphbqb|xmmbqyphbzb|bnmbqyphbzb|xmmbqyphbjc|bnmbqyphbjc|xmmbqypjbdb|bnmbqypjbdb|xmmbqypjbmb|bnmbqypjbmb|xmmbqypjbvb|xmmbqypjbfc|bnmbqypjbfc|xmmbqypjbnc|bnmbqypjbnc|xmmbqypkbkb|bnmbqypkbkb|xmmbqypkbsb|bnmbqypkbsb"
1453220,32.654756,-97.099587,"Arlington Animal Services","Arlington","67468802"
1465026,32.732003,-97.110643,"UTA University Center","Arlington","28759611"
1489425,32.782729,-97.116523,"River Legacy Park","Arlington","80445562|64437982|65127092|69615002|66033692|77444032|90906092|90908012|97353982|97354422|103018632"
1492323,32.682957,-97.194992,"Painting with a Twist","Arlington","16137267|56125742|41204892|50439862"
1497612,32.650563,-97.122592,"Tabitha's House","Arlington","14576640"
1506230,32.67897,-97.108749,"Mimi's Cafe","Arlington","90538622|105271022"
1509659,32.755569,-97.097183,"Black-Eyed Pea Restaurants","Arlington","qknhjcyqfbtb|qknhjcyqfbdc|qknhjcyqfbmc|qknhjcyqgbhb|qknhjcyqgbqb|qknhjcyqgbzb|qknhjcyqgbjc|qknhjcyqhbfb|qknhjcyqhbnb|qknhjcyqhbwb|qknhjcyqhbgc|qknhjcyqhbpc|qknhjcyqjbkb|qknhjcyqjbsb"
1512131,32.735687,-97.108063,"river legacy park","Arlington","19746131|19286381|pjpntypjbvb|plpntypjbwb|plpntypjbcc|plpntypjbdc|plpntypjbfc|plpntypjbgc|23194861|plpntypjbkc|plpntypjblc|plpntypjbmc|plpntypjbnc|27283011|34664742"
1527292,32.67355,-97.193138,"Bicycles Inc","Arlington","16630936"
1530297,32.725906,-97.127647,"Maverick Stadium","Arlington","62139582|20797011|16669252|62140802|16654977|56914212|20550281"
1537832,32.690056,-97.128998,"Feed Your Head","Arlington","16716996|24106601|24107661|24107271|26095211|25622891|26095271|31789702|30313501|31789742|35293292|34869682|38012632|35293372|36722462|46271662|58839032|58839712|71276712|90409012|djnskfyrdbdc"
1542013,32.770767,-97.097128,"River Legacy Park - Collins Street Entrance","Arlington","16753064|22003691|29176241|49139382|54017892|59885912|76756322|89954772|95485282|17533570"
1542090,32.681087,-97.133286,"Razzoo's Cajun Cafe","Arlington","48395642"
1546821,32.646271,-97.186707,"Jack in the Box","Arlington","16793671|16841325"
1560226,32.752888,-97.066673,"Humperdink's","Arlington","drjdnypkbjb|drjdnyplbfb|drjdnypmbkb|drjdnypnbhb|drjdnyppbdb|drjdnypqbkb|drjdnyqcbgb|drjdnyqdbcb|drjdnyqfbkb|drjdnyqgbgb|drjdnyqhbdb|drjdnyqjbjb|drjdnyqkbgb|drjdnyqlbcb|drjdnyqmbhb|drjdnyqnbfb|drjdnyqpbkb|drjdnyqqbhb|drjdnyrcbdb|drjdnyrdbjb|drjdnyrfbjb|99630282"
1561615,32.635292,-97.115089,"Loving Hut","Arlington","16914839|22008101|41771782|49037852|63595312|70787472|73109172|85845862|94302902|100502642"
1563690,32.690056,-97.128998,"Feed Your Head","Arlington","16931528"
1574250,32.756317,-97.098351,"BoomerJack's","Arlington","17018618|lvkkqypjbtb"
1575817,32.680473,-97.109505,"The Melting Pot","Arlington","39288732"
1599939,32.751076,-97.085083,"The Ballpark In Arlington, Arlington, TX 76011","Arlington","cjkntypkbwb|cjkntypkbxb|cjkntypkbzb|cjkntypkbbc|cjkntypkbcc|cjkntypkbdc|cjkntypkbfc|cjkntypkbgc|cjkntypkbhc|cjkntypkbjc|cjkntypkbkc|cjkntypkblc|cjkntypkbmc|cjkntypkbnc|cjkntypkbpc"
1625764,32.709068,-97.144852,"Dr. Amerson ","Arlington","17496788|19354191|17496792"
1626522,32.772964,-97.063431,"Admiral Hotel - Reflections Lounge","Arlington","20883381|pddrtypkbjb|pddrtypkbrb|pddrtypkbbc|pddrtypkbkc|pmchxyplbfb|pmchxyplbnb|pmchxyplbwb|pmchxyplbgc|pmchxyplbpc|pmchxypmbkb|pmchxypmbsb|dfhpccypmblc|dfhpccypnbhb|dfhpccypnbqb|dfhpccypnbzb|dfhpccypnbjc|dfhpccyppbdb|dfhpccyppbmb|dfhpccyppbvb|dfhpccyppbfc|dfhpccyppbnc|51796502|61057152|61057272|ctwlsypjbmc|ctwlsypkbjb|ctwlsypkbrb|ctwlsypkbbc|ctwlsypkbkc|ctwlsyplbfb|ctwlsyplbnb|ctwlsyplbwb|ctwlsyplbgc|ctwlsyplbpc|ctwlsypmbkb|ctwlsypmbsb|qrhpccypmbcc|34449512|qrhpccypmblc|qrhpccypnbhb|qrhpccypnbqb|qrhpccypnbzb|qrhpccypnbjc|qrhpccyppbdb|qhmsgcyppbmb|qhmsgcyppbvb|qhmsgcyppbfc|qhmsgcyppbnc|23146321|25723141|25723401"
1629439,32.709068,-97.144852," Amerson's","Arlington","17496744|19353951"
1631317,32.640354,-97.133736,"Rio Mambo","Arlington","30576781|39551432|48391982|59045422|qfqvscyqhbgc|qfqvscyqjblc|71156282|qfqvscyqkbjc|qfqvscyqlbfc|79202062|71155982|79767082|79767242|71072562"
1825121,32.685379,-97.093071,"Arbrook Retirement Living","Arlington","19188991"
1843311,32.750263,-97.131714,"beauty & Beyond ","Arlington","26712781|26712881"
2002141,32.679344,-97.129585,"The Parks Mall","Arlington","40682972"
2029641,32.793377,-97.116745,"River Legacy Park - Main Entrance","Arlington","97671752"
2104981,32.746483,-97.060616,"Around About Sports Bar","Arlington","21690161"
2129001,32.673531,-97.194672,"Angie's Scrapbooking Shop","Arlington","33960592|35409052|35097732|36873202|36637662|41405992|43834732|43836302|51193562|51193772"
2170531,32.694494,-97.121785,"Dance Invasion Inc","Arlington","22232041|plxltypjbnc|cnxltypkbfb|cnxltypkbnb|pkvcwypkbpb|plxltypkbsb|cnxltypkbwb|pkvcwypkbxb|pdcswypkbcc|cnxltypkbgc|cqvcwypkbhc|csvcwypkblc|ptvcwypkbpc|cqvcwyplbcb|csvcwyplbgb|ptvcwyplbkb|cqvcwyplblb|csvcwyplbpb|pnlmwyplbsb|ptvcwyplbsb|cqlmwyplbcc|pqlmwyplbcc|pmlmwyplbcc|cqlmwyplblc|pqlmwyplblc|pmlmwyplblc|qlkmbcypmbgb|dmkmbcypmbgb|pmlmwypmbgb|qnkmbcypmbgb|31789372|dmkmbcypmbpb|pmlmwypmbpb|qnkmbcypmbpb|qpmhbcypmbhc|dmkmbcypmbhc|qrmhbcypmbhc|qnkmbcypmbhc|qpmhbcypnbdb|dmkmbcypnbdb|qrmhbcypnbdb|qnkmbcypnbdb|qpmhbcypnbmb|dmkmbcypnbmb|qrmhbcypnbmb|qnkmbcypnbmb|qzmbdcypnbfc|qbnbdcypnbfc|dlnbdcypnbfc|qdnbdcypnbfc|qnkmbcypnbfc|qzmbdcypnbnc|qbnbdcypnbnc|dlnbdcypnbnc|qdnbdcypnbnc|qnkmbcypnbnc|qzmbdcyppbjb|qbnbdcyppbjb|dlnbdcyppbjb|qdnbdcyppbjb|qnkmbcyppbjb|qzmbdcyppbrb|qbnbdcyppbrb|dlnbdcyppbrb|qdnbdcyppbrb|qnkmbcyppbrb|qzmbdcyppbbc|qbnbdcyppbbc|dlnbdcyppbbc|qdnbdcyppbbc|qnkmbcyppbbc|qzmbdcyppbkc|qbnbdcyppbkc|dlnbdcyppbkc|qdnbdcyppbkc|qnkmbcyppbkc|qzmbdcypqbgb|qbnbdcypqbgb|dlnbdcypqbgb|qdnbdcypqbgb|qnkmbcypqbgb|qzmbdcypqbpb|dlnbdcypqbpb|qdnbdcypqbpb|qnkmbcypqbpb"
2328711,32.67348,-97.171326,"Park and Ride","Arlington","23642761|70153532"
2340931,32.753918,-97.064224,"Aiyoku","Arlington","23757761|40916242|72861972|dkvdqdyqnbzb|23749001|40757492|71607662|86875512|23751571|40917232|71608362|86883932|23750621|40917762|71607842|86882672"
2410991,32.732002,-97.110641,"E.H. Hereford University Center-Concho Theater","Arlington","24363771"
2418531,32.785423,-97.094337,"Al's Hamburgers","Arlington","67607352|71616102|74751682|93294682|97449052"
2472591,32.741249,-97.049049,"Center City Bar and Grill","Arlington","41298292"
2490161,32.73774,-97.157158,"Arlington Baptist College","Arlington","25031991"
2540081,32.789078,-97.09732,"River Legacy Foundation  ( N. Collins entrance)","Arlington","25424881|27906441|29663281|47276512"
2540641,32.770885,-97.09713,"River Legacy Park  ( N. Collins entrance)","Arlington","88701542|96638922|98148912|95657172"
2575251,32.735687,-97.108063,"Lori M's House","Arlington","26718131|26721581"
2688091,32.648525,-97.06385,"Buffalo Cantina Mexican Kitchen & Tequileria","Arlington","26630771"
2698851,32.735687,-97.108063,"Black Finn Restaurant","Arlington","26785001|26717851|28343581|26712671|83982332|88166722|90525762|92734012|98942052|103713422|102060562|102065772|103825732|102064402|102067022|88168042|92734382|102061052|103225582|103713862|101888462|102064872|102059762"
2766651,32.682625,-97.115852,"Courtyard Dallas Arlington South","Arlington","27025621"
2817351,32.750507,-97.124489,"Acupuncture & Allergy Center","Arlington","27734681|27736741|34950872|76469522|78293392|104507262"
3028391,32.751587,-97.094017,"Tailgate Tavern","Arlington","45394812"
3040001,32.708668,-97.096565,"King Chinese BBQ","Arlington","28761881"
3111021,32.746796,-97.056602,"Swing Dance Studio","Arlington","cjhpzypmbkb|cjhpzypmbsb|cjhpzypmbcc|cjhpzypnbhb|cjhpzypnbzb|cjhpzypnbjc|cjhpzyppbdb|cjhpzyppbmb|cjhpzyppbvb|cjhpzyppbfc|cjhpzyppbnc|cjhpzypqbkb|cjhpzypqbsb"
3119111,32.735092,-97.106155,"Health and Harmony House","Arlington","zrwcqyplbkc|zrwcqypmbgc"
3171841,32.738537,-97.106979,"Babe's Chicken Dinner House","Arlington","103248262"
3181161,32.75629,-97.097397,"Naughtrite Dedical Center","Arlington","30820561"
3187991,32.759041,-97.090523,"Bikinis Sports Bar & Grill","Arlington","30894231|33380192"
3205151,32.735531,-97.103432,"J. Gilligan's Bar & Grill","Arlington","91215252|31046911|91831532"
3307572,32.742725,-97.08374,"Cowboys Stadium","Arlington","32187172"
3457302,32.750919,-97.098495,"1010 Collins","Arlington","34448962|36206952"
3568452,32.76273,-97.117821,"Kroger Stores","Arlington","33053932"
3608102,32.673531,-97.194672,"Angie's Scrapbooking","Arlington","37639692|37637972|39120722|42164872|44384242|40205222|45633202|45672752|45975032|51490072|51193712"
3651452,32.787853,-97.09794,"River Legacy Parks Canoe Launch","Arlington","28830741"
3701392,32.732002,-97.110641,"Rio Grande Ballroom, U.C.-E.H.Hereford University Center","Arlington","35091242|35103272"
3773012,32.707432,-97.165756,"Jumpin Jesse Nutrition","Arlington","dnmgdcypnbmb|qkbtccypnbmb|dnmgdcypnbvb|dnmgdcyppbrb|dnmgdcypnbfc|dnmgdcypnbnc|38608182|dnmgdcyppbbc|dnmgdcyppbkc|41575372|dnmgdcypqbgb|dnmgdcypqbpb|dnmgdcyqcblb|dnmgdcyqcbtb|dnmgdcyqcbdc|dnmgdcyqcbmc|dnmgdcyqdbhb|dnmgdcyqdbqb|dnmgdcyqdbzb|dnmgdcyqdbjc|qkbtccyqfbpb|dnmgdcyqfbgb|qkbtccyqfbxb|dnmgdcyqfbpb|dnmgdcyqfbxb|dnmgdcyqfbhc|dnmgdcyqgbcb|dnmgdcyqgblb|dnmgdcyqgbtb|dnmgdcyqgbdc|dnmgdcyqgbmc|dnmgdcyqhbjb|dnmgdcyqhbrb|dnmgdcyqhbbc|dnmgdcyqhbkc|dnmgdcyqjbfb|dnmgdcyqjbwb|dnmgdcyqjbgc|dgzlfcypnbcc|dgzlfcypnblc|38608922|dgzlfcyppbgb|dgzlfcyppbxb|dgzlfcyppbhc|dgzlfcypqbdb|dgzlfcypqbmb|dgzlfcypqbvb|dgzlfcypqbfc|dgzlfcypqbnc|dgzlfcyqcbjb|dgzlfcyqcbrb|dgzlfcyqcbbc|dgzlfcyqcbkc|dgzlfcyqdbfb|dgzlfcyqdbnb|dgzlfcyqdbwb|dgzlfcyqdbgc|dgzlfcyqfbdb|dgzlfcyqfbmb|dgzlfcyqfbvb|dgzlfcyqfbfc|dgzlfcyqfbnc|dgzlfcyqgbjb|dgzlfcyqgbrb|dgzlfcyqgbbc|dgzlfcyqgbkc|dgzlfcyqhbgb|dgzlfcyqhbpb|dgzlfcyqhbxb"
3776302,32.709351,-97.136833,"Taste of Europe","Arlington","43994682"
3778092,32.718754,-97.144135,"Bob Wilson's Home","Arlington","35735022|44559972|55099102|56382592|71025192"
3820462,32.687725,-97.13076,"Spring Creek Barbeque","Arlington","95382452|10517469|10862865|36093022|10048782|10140502|11184443|36092772|36092872|36093202"
3820672,32.687725,-97.13076,"Spring Creek Barbeque","Arlington","36094652"
3820692,32.687725,-97.13076,"Spring Creek Barbeque","Arlington","36094732"
3820712,32.687725,-97.13076,"Spring Creek Barbeque","Arlington","36094792"
3820722,32.687725,-97.13076,"Spring Creek Barbeque","Arlington","36094862"
3820732,32.687725,-97.13076,"Spring Creek Barbeque","Arlington","36094902"
3820742,32.687725,-97.13076,"Spring Creek Barbeque","Arlington","36094982"
3820752,32.687725,-97.13076,"Spring Creek Barbeque","Arlington","36095032"
3820762,32.687725,-97.13076,"Spring Creek Barbeque","Arlington","36095062"
3820772,32.687725,-97.13076,"Spring Creek Barbeque","Arlington","36095072"
3820812,32.687725,-97.13076,"Spring Creek Barbeque","Arlington","36095292"
3820822,32.687725,-97.13076,"Spring Creek Barbeque","Arlington","36095322"
3835842,32.673367,-97.090752,"Mochalux Coffee","Arlington","36219262|99850652|dlqhgfyrcbgc|dlqhgfyrcbpc|dlqhgfyrdbkb"
3867332,32.75016,-97.081276,"Rangers Ballpark in Arlington","Arlington","91381492|91381822|67985722|95255542"
3906762,32.677074,-97.135262,"Park's Mall 2nd floor by AMC ticket counter","Arlington","34962032|qkbtccypnbvb|qkbtccypnbnc|38608592|qkbtccyppbrb|qkbtccyqcblb"
3979112,32.757145,-97.081566,"Sheraton Arlington Hotel","Arlington","15535333|39097742|39097882|39097782|39097832|39097582|39097662"
3985082,32.758369,-97.098778,"Sherlocks Baker Street Pub","Arlington","55565152"
4108262,32.736923,-97.061783,"R2 Studio","Arlington","49611612|52127612|52998082|54158952|57574112|60769762|60923832"
4115592,32.685707,-97.179863,"Martin High School  Cafeteria","Arlington","79177252"
4120882,32.700069,-97.140839,"Arlington Unitarian Church","Arlington","52873332|67221752|94836812|94837322|97482072|97482212|97482342|97482462|100709132|106019262|106019412|106019482|106019642|106019732|106019832"
4151962,32.749256,-97.096741,"Cowboys Stadium","Arlington","103945292"
4186352,32.700071,-97.14084,"Unitarian Universalist Church of Arlington","Arlington","zrwcqypnbdc|43651842|49649662|qkczfcyqdbhc|qkczfcyqfbgc|qkczfcyqgblc|qkczfcyqhbjc"
4201602,32.800224,-97.180527,"Tracy's House","Arlington","39193142"
4215012,32.741158,-97.047417,"Cowboys Stadium","Arlington","40833952|60527702"
4269002,32.683147,-97.133041,"AMC The Parks At Arlington 18 ","Arlington","dqmvlcyqfbpc"
4312842,32.716316,-97.13813,"Home of Dan and Kim","Arlington","62530322"
4316132,34.862862,-100.209953,"TBD Arlington","Arlington","36056242"
4332022,32.706783,-97.162529,"Arlington Veterans Park Memorial","Arlington","98508132|66830102|81367972"
4443032,32.741249,-97.049049,"The Center City Bar & Grill","Arlington","59993172|pxsgpyqhbwb"
4447722,32.735687,-97.108063,"Rita K's House","Arlington","41244542"
4456582,32.614975,-97.115952,"Rock Wings ","Arlington","41321122"
4552892,32.734749,-97.11274,"Studio Arlington","Arlington","42159022|46448872|47319092"
4646102,32.756653,-97.085075,"Arlington Convention Center","Arlington","dgdbgcyqfbdc"
4681322,32.723907,-97.114639,"Rick's Bar & Grill","Arlington","dppgjcypqbkb|qhlpjcypqbsb|qhlpjcypqbcc|qkpgjcypqbkb|qkpgjcypqbsb|qkpgjcypqbcc|dnpgjcypqbkb|dnpgjcypqbsb|dnpgjcypqbcc|cpzmvypqbsb|dvhpccypqbcc"
4733322,32.735283,-97.103905,"Twisted Root Burger Co.","Arlington","43994422"
4734082,32.747875,-97.092842,"Dallas Cowboy Stadium","Arlington","44125382|61478452|78153092|105704322|105709152"
4734202,32.712997,-97.164764,"Wild Sky Studio @ Massage Therapy Wellness Center","Arlington","44669812|dvqhjcyqcblb|dxqhjcyqcblb|dcrhjcyqcblb|ddrhjcyqcblb|qjrhjcyqcblb|qfpxjcyqcbmb|dwrhjcyqcbmb|qkrhjcyqcbmb|qwrhjcyqcbnb|dkpxjcyqcbnb|dgpxjcyqcbpb|dxrhjcyqcbpb|dnrhjcyqcbpb|dzrhjcyqcbqb|djpxjcyqcbqb|46270472|qlbqlcyqcbtb|dxqhjcyqcbtb|dcrhjcyqcbtb|ddrhjcyqcbtb|qjrhjcyqcbtb|qfpxjcyqcbvb|dwrhjcyqcbvb|qkrhjcyqcbvb|dmpxjcyqcbwb|dkpxjcyqcbwb|dgpxjcyqcbxb|dxrhjcyqcbxb|dnrhjcyqcbxb|dzrhjcyqcbzb|djpxjcyqcbzb|qlbqlcyqcbdc|dcrhjcyqcbdc|ddrhjcyqcbdc|qjrhjcyqcbdc|qfpxjcyqcbfc|dwrhjcyqcbfc|qkrhjcyqcbfc|dmpxjcyqcbgc|dkpxjcyqcbgc|dgpxjcyqcbhc|dxrhjcyqcbhc|dnrhjcyqcbhc|dzrhjcyqcbjc|djpxjcyqcbjc|qlbqlcyqcbmc|dxqhjcyqcbmc|dcrhjcyqcbmc|ddrhjcyqcbmc|qjrhjcyqcbmc|qfpxjcyqcbnc|dwrhjcyqcbnc|qkrhjcyqcbnc|dmpxjcyqcbpc|dkpxjcyqcbpc|dgpxjcyqdbcb|dxrhjcyqdbcb|dnrhjcyqdbcb|dzrhjcyqdbdb|djpxjcyqdbdb|qlbqlcyqdbhb|dxqhjcyqdbhb|ddrhjcyqdbhb|qjrhjcyqdbhb|dwrhjcyqdbjb|qkrhjcyqdbjb|dmpxjcyqdbkb|dxrhjcyqdblb|dnrhjcyqdblb|dzrhjcyqdbmb|djpxjcyqdbmb|qlbqlcyqdbqb|dxqhjcyqdbqb|ddrhjcyqdbqb|qjrhjcyqdbqb|dwrhjcyqdbrb|qkrhjcyqdbrb|dmpxjcyqdbsb|dkpxjcyqdbsb|dxrhjcyqdbtb|dnrhjcyqdbtb|dzrhjcyqdbvb|djpxjcyqdbvb|qlbqlcyqdbzb|dxqhjcyqdbzb|dvdcpcyqdbzb|ddrhjcyqdbzb|qjrhjcyqdbzb|dwrhjcyqdbbc|qkrhjcyqdbbc|dmpxjcyqdbcc|qbfcpcyqdbcc|dkpxjcyqdbcc|dxrhjcyqdbdc|dnrhjcyqdbdc|qlbqlcyqdbjc|dxqhjcyqdbjc|dvdcpcyqdbjc|ddrhjcyqdbjc|qjrhjcyqdbjc|dwrhjcyqdbkc|qkrhjcyqdbkc|dxrhjcyqdbmc|dnrhjcyqdbmc|dpmwpcyqfbfb|drfcpcyqfbgb|dvdcpcyqfbgb|dnfcpcyqfbhb|dqfcpcyqfbhb|dnfcpcyqfbjb|dqfcpcyqfbjb|dnfcpcyqfbkb|dqfcpcyqfbkb|dpmwpcyqfbnb|drfcpcyqfbpb|dvdcpcyqfbpb|dnfcpcyqfbqb|dqfcpcyqfbqb|dnfcpcyqfbrb|dqfcpcyqfbrb|dnfcpcyqfbsb|dqfcpcyqfbsb|drfcpcyqfbxb|dvdcpcyqfbxb|dnfcpcyqfbzb|dqfcpcyqfbzb|dnfcpcyqfbbc|dqfcpcyqfbbc|dnfcpcyqfbcc|dqfcpcyqfbcc|qqlprcyqfbgc|drfcpcyqfbhc|dvdcpcyqfbhc|dnfcpcyqfbjc|dqfcpcyqfbjc|dnfcpcyqfbkc|dqfcpcyqfbkc|dnfcpcyqfblc|dqfcpcyqfblc|qqlprcyqfbpc|dnfcpcyqgbdb|dqfcpcyqgbdb|dnfcpcyqgbfb|dqfcpcyqgbfb|dnfcpcyqgbgb|dqfcpcyqgbgb|qqlprcyqgbkb|drfcpcyqgblb|dvdcpcyqgblb|dnfcpcyqgbmb|dqfcpcyqgbmb|dnfcpcyqgbnb|dqfcpcyqgbnb|dnfcpcyqgbpb|dqfcpcyqgbpb|qqlprcyqgbsb|drfcpcyqgbtb|dvdcpcyqgbtb|dnfcpcyqgbvb|dqfcpcyqgbvb|dqfcpcyqgbwb|dnfcpcyqgbxb|dqfcpcyqgbxb|qqlprcyqgbcc|drfcpcyqgbdc|dvdcpcyqgbdc|dnfcpcyqgbfc|dqfcpcyqgbfc|dnfcpcyqgbgc|dqfcpcyqgbgc|dnfcpcyqgbhc|dqfcpcyqgbhc|qqlprcyqgblc|drfcpcyqgbmc|dnfcpcyqgbnc|dqfcpcyqgbnc|dnfcpcyqhbcb|dqfcpcyqhbcb|dnfcpcyqhbdb|dqfcpcyqhbdb|qqlprcyqhbhb|drfcpcyqhbjb|dnfcpcyqhbkb|dqfcpcyqhbkb|dnfcpcyqhblb|dqfcpcyqhblb|dnfcpcyqhbmb|dqfcpcyqhbmb|qqlprcyqhbqb|drfcpcyqhbrb|dnfcpcyqhbsb|dqfcpcyqhbsb|dnfcpcyqhbtb|dqfcpcyqhbtb|dnfcpcyqhbvb|dqfcpcyqhbvb|qqlprcyqhbzb|drfcpcyqhbbc|dnfcpcyqhbcc|dqfcpcyqhbcc|dnfcpcyqhbdc|dqfcpcyqhbdc|dnfcpcyqhbfc|dqfcpcyqhbfc|qqlprcyqhbjc|drfcpcyqhbkc|dnfcpcyqhblc|dnfcpcyqhbmc|dqfcpcyqhbmc|dnfcpcyqhbnc|dqfcpcyqhbnc|65281732|drfcpcyqjbfb|dqfcpcyqjbgb|qkdxxcyqjbgb|dqfcpcyqjbhb|qkdxxcyqjbhb|dqfcpcyqjbjb|qkdxxcyqjbjb|qnhswcyqjbjb|qpghxcyqjbmb|drfcpcyqjbnb|dqfcpcyqjbpb|qkdxxcyqjbpb|dqfcpcyqjbqb|qkdxxcyqjbqb|dqfcpcyqjbrb|qkdxxcyqjbrb|qnhswcyqjbrb|qpghxcyqjbvb|drfcpcyqjbwb|dqfcpcyqjbxb|qkdxxcyqjbxb|dqfcpcyqjbzb|qkdxxcyqjbzb|dqfcpcyqjbbc|qkdxxcyqjbbc|qnhswcyqjbbc|qpghxcyqjbfc|drfcpcyqjbgc|dqfcpcyqjbhc|qkdxxcyqjbhc|dqfcpcyqjbjc|qkdxxcyqjbjc|dqfcpcyqjbkc|qkdxxcyqjbkc|qnhswcyqjbkc|qpghxcyqjbnc|drfcpcyqkbcb|dqfcpcyqkbdb|qkdxxcyqkbdb|dqfcpcyqkbfb|qkdxxcyqkbfb|dqfcpcyqkbgb|qkdxxcyqkbgb|67543172|drfcpcyqkblb|qlgmcdyqkbmb|dqfcpcyqkbmb|qkdxxcyqkbmb|dqfcpcyqkbnb|qkdxxcyqkbnb|dqfcpcyqkbpb|qkdxxcyqkbpb|qlgmcdyqkbvb|dqfcpcyqkbvb|qkdxxcyqkbvb|dqfcpcyqkbwb|qkdxxcyqkbwb|dqfcpcyqkbxb|qkdxxcyqkbxb|drfcpcyqkbdc|qlgmcdyqkbfc|dqfcpcyqkbfc|qkdxxcyqkbfc|dqfcpcyqkbgc|qkdxxcyqkbgc|dqfcpcyqkbhc|qkdxxcyqkbhc|drfcpcyqkbmc|qlgmcdyqkbnc|dqfcpcyqkbnc|qkdxxcyqkbnc|dqfcpcyqkbpc|qkdxxcyqkbpc|dqfcpcyqlbcb|qkdxxcyqlbcb|drfcpcyqlbhb|qlgmcdyqlbjb|dqfcpcyqlbjb|qkdxxcyqlbjb|dqfcpcyqlbkb|qkdxxcyqlbkb|dqfcpcyqlblb|qkdxxcyqlblb|drfcpcyqlbqb|qlgmcdyqlbrb|dqfcpcyqlbrb|qkdxxcyqlbrb|dqfcpcyqlbsb|qkdxxcyqlbsb|dqfcpcyqlbtb|qkdxxcyqlbtb|drfcpcyqlbzb|qlgmcdyqlbbc|dqfcpcyqlbbc|qkdxxcyqlbbc|dqfcpcyqlbcc|qkdxxcyqlbcc|dqfcpcyqlbdc|drfcpcyqlbjc|qlgmcdyqlbkc|dqfcpcyqlbkc|qkdxxcyqlbkc|dqfcpcyqlblc|qkdxxcyqlblc|dqfcpcyqlbmc|qkdxxcyqlbmc|drfcpcyqmbdb|dqfcpcyqmbfb|dqfcpcyqmbgb|dqfcpcyqmbhb|drfcpcyqmbmb|dqfcpcyqmbnb|dqfcpcyqmbpb|dqfcpcyqmbqb|drfcpcyqmbvb|dqfcpcyqmbwb|dqfcpcyqmbxb|dqfcpcyqmbzb|drfcpcyqmbfc|dqfcpcyqmbgc|dqfcpcyqmbjc|drfcpcyqmbnc|dqfcpcyqnbcb|dqfcpcyqnbdb|dqfcpcyqnbfb|drfcpcyqnbkb|dqfcpcyqnblb|dqfcpcyqnbmb|dqfcpcyqnbnb|drfcpcyqnbsb|dqfcpcyqnbtb|dqfcpcyqnbvb|dqfcpcyqnbwb|drfcpcyqnbcc|dqfcpcyqnbdc|dqfcpcyqnbfc|88194882|dqfcpcyqnbgc|drfcpcyqnblc|dqfcpcyqnbmc|dqfcpcyqnbnc|drfcpcyqpbgb|dqfcpcyqpbhb|dqfcpcyqpbjb|dqfcpcyqpbkb|82519102|90410032|dqfcpcyqpbqb|dqfcpcyqpbrb|dqfcpcyqpbsb|dbdvsdyqpbsb|drfcpcyqpbxb|dqfcpcyqpbzb|dqfcpcyqpbbc|dqfcpcyqpbcc|dbdvsdyqpbcc|drfcpcyqpbhc|dqfcpcyqpbjc|dqfcpcyqpbkc|dqfcpcyqpblc|dbdvsdyqpblc|drfcpcyqqbdb|dqfcpcyqqbfb|dqfcpcyqqbgb|dqfcpcyqqbhb|dbdvsdyqqbhb|drfcpcyqqbmb|dqfcpcyqqbnb|dqfcpcyqqbpb|dqfcpcyqqbqb|dbdvsdyqqbqb|drfcpcyqqbvb|dqfcpcyqqbwb|dqfcpcyqqbxb|dqfcpcyqqbzb|dbdvsdyqqbzb|ddsjdfyrcbrb|qhtjdfyrcbrb|qqvjdfyrcbrb|qvvjdfyrcbrb|qksjdfyrcbsb|qksjdfyrcbtb|qltjdfyrcbtb|qksjdfyrcbvb|ddsjdfyrcbbc|qhtjdfyrcbbc|qqvjdfyrcbbc|qvvjdfyrcbbc|qksjdfyrcbcc|qksjdfyrcbdc|qltjdfyrcbdc|qksjdfyrcbfc|ddsjdfyrcbkc|qhtjdfyrcbkc|qqvjdfyrcbkc|qvvjdfyrcbkc|qksjdfyrcblc|qksjdfyrcbmc|qltjdfyrcbmc|qksjdfyrcbnc|ddsjdfyrdbfb|qhtjdfyrdbfb|qqvjdfyrdbfb|qvvjdfyrdbfb|qksjdfyrdbgb|qksjdfyrdbhb|qltjdfyrdbhb|ddsjdfyrdbnb|qhtjdfyrdbnb|qqvjdfyrdbnb|qvvjdfyrdbnb|qksjdfyrdbpb|qksjdfyrdbqb|qltjdfyrdbqb|qksjdfyrdbrb|ddsjdfyrdbwb|qhtjdfyrdbwb|qqvjdfyrdbwb|qvvjdfyrdbwb|qksjdfyrdbxb|qksjdfyrdbzb|qltjdfyrdbzb|qksjdfyrdbbc|ddsjdfyrdbgc|qhtjdfyrdbgc|qqvjdfyrdbgc|qvvjdfyrdbgc|qksjdfyrdbhc|qksjdfyrdbjc|qltjdfyrdbjc|qksjdfyrdbkc|qqktjfyrfbjb|ddmmcdyqkbjb|ddmmcdyqlbfb|qgswfdyqmbhb|qgswfdyqmbqb|qgswfdyqmbzb|qgswfdyqmbjc|qgswfdyqnbfb|qgswfdyqnbnb|qgswfdyqnbwb|qgswfdyqnbgc|qgswfdyqpbkb|qgswfdyqpbsb|qgswfdyqpbcc|qgswfdyqpblc|ddwcbfyrfbjb"
4739712,32.644466,-97.134308,"Soprano's Italian Cuisine","Arlington","43886562"
4744022,32.747875,-97.092842,"Cowboys Stadium","Arlington","62534932"
4752212,32.680206,-97.10537,"Black Eyed Pea (Arlington Highlands)","Arlington","43899262|84095182|84095272|84095422|96711212|44138022"
4762212,32.661209,-97.065445,"Brooklyn's Best Pizza & Pasta","Arlington","44100052"
4763042,32.720837,-97.133759,"Chop House Burgers","Arlington","44105532"
4801042,32.664364,-97.133263,"World of Beer","Arlington","44477932|46025612|47541222|50108852|43822902|53184662|54158502"
4819302,32.614685,-97.117058,"Jeff & Lauren's","Arlington","26715251|49176542|81210162|86189252|94361662|72488202|95000252|81332612"
4885102,32.682576,-97.116172,"Courtyard By Marriott","Arlington","45356262"
4885262,32.747875,-97.092842,"Cowboys Stadium (Dallas) ","Arlington","105288102"
4924632,32.747906,-97.092911,"Cowboy's Stadium","Arlington","48453332"
4942042,32.749687,-97.068932,"International Bowling Museum and Hall of Fame","Arlington","46004342"
5041342,32.678673,-97.121155,"Abuelo's","Arlington","76370602"
5048992,32.683453,-97.068932,"High Point Church","Arlington","59510422|59510662"
5288172,32.756535,-97.099648,"Swamp Daddy's Smokin' Hot Seafood Grill","Arlington","49070542"
5307612,32.730385,-97.112076,"UTA Planetarium","Arlington","49229132"
5366432,32.722706,-97.14756,"Chase Bank Building","Arlington","103155402|54529262|74857362|78723832|90550842|88389542|93028502|93515292|103155662"
5404142,32.72839,-97.114571,"The University of Texas","Arlington","dwqpmcyqfbfb|dwqpmcyqfbgb"
5484852,32.756641,-97.064453,"Dennys Restaurant","Arlington","50685962|53046682"
5520292,32.741261,-97.052711,"Sidetracked Pub and Grub","Arlington","82012722|82857032|82907982|82907712|82907832"
5571692,32.757423,-97.099403,"Black Eyed Pea","Arlington","qknhjcyqdbmb"
5609422,32.722706,-97.14756,"Chase Bank","Arlington","103155552"
5691392,32.724922,-97.114059,"Beirut Cafe","Arlington","98558592|bshdpyqdbzb|bshdpyqfbxb|bshdpyqgbtb|bshdpyqhbbc|twsknyqjbfb|bshdpyqjbwb|twsknyqkbcb|bshdpyqkbtb|twsknyqlbhb|bshdpyqlbzb|twsknyqmbdb|bshdpyqmbvb|twsknyqnbkb|bshdpyqnbcc|twsknyqpbgb|bshdpyqpbxb|twsknyqqbdb|bshdpyqqbvb|twsknyrcbjb|bshdpyrcbbc|twsknyrdbfb|bshdpyrdbwb|98163912|98927942"
5815732,32.730106,-97.112244,"Central Library - University of Texas at Arlington","Arlington","52012652"
5821842,32.613956,-97.160225,"Randol Mill Park","Arlington","34116982"
5862112,32.683117,-97.114334,"America's Best Coffee","Arlington","53714652|67168112|89596592|91089262|94300122|99680152|100468932|102105782"
5903892,32.67194,-97.137917,"Ninja Sushi and Grill","Arlington","qkjzscyqgbrb|qkjzscyqhbxb|qkjzscyqjbdc|qkjzscyqlbwb|qljzscyqgbrb|qljzscyqhbxb|qljzscyqjbdc|qljzscyqlbwb"
5978392,32.641171,-97.075134,"Tarrant County College Southeast Campus","Arlington","81628842"
5993012,32.75016,-97.081276,"Rangers Ballpark (1st Base Box Office)","Arlington","54791872"
6012272,32.735283,-97.103905,"Hooligans's Pub","Arlington","51153762|101613182"
6013342,32.707432,-97.165756,"Jumpin Jesse Fitness","Arlington","54968402|55200992|qkbtccyqfbgb|59184332|58072762|drttqcyqhbpb|dhjhwcyqhbpb|dhjhwcyqhbqb|dhjhwcyqhbsb|dtbgscyqhbqb|dhjhwcyqhbxb|dhjhwcyqhbhc|dhjhwcyqjbcb|dhjhwcyqjblb|dhjhwcyqjbtb|dhjhwcyqjbdc|dtbgscyqjbnc|dhjhwcyqjbmc|dtbgscyqkbcb|dhjhwcyqkbjb|dtbgscyqkblb|dhjhwcyqkbrb|dtbgscyqkbtb|dhjhwcyqkbbc|dtbgscyqkbdc|dtbgscyqkbmc|76093702|dtbgscyqlbhb|dtbgscyqlbqb|dtbgscyqlbzb|qnfrhdyqlbjc|qnfrhdyqmbdb|qnfrhdyqmbmb|81494652|qnfrhdyqmbfc|qnfrhdyqmbnc|qnfrhdyqnbkb|qnfrhdyqnbsb|qnfrhdyqnbcc|qnfrhdyqnblc|qnfrhdyqpbgb|qnfrhdyqpbpb|qnfrhdyqpbxb|qnfrhdyqpbhc|qnfrhdyqqbdb|qnfrhdyqqbmb|qnfrhdyqqbvb|qnfrhdyqqbfc|qnfrhdyqqbnc|qnfrhdyrcbjb|qnfrhdyrcbrb|qnfrhdyrcbbc"
6016952,32.683117,-97.114334,"America's Best Coffee","Arlington","54999072"
6045612,32.75246,-97.064636,"2380 Road To Six Flags St","Arlington","91544732"
6193822,32.735687,-97.108063,"Bartholomee's Home","Arlington","56344662|63911512"
6194552,32.725906,-97.127647,"Maverick Stadium, University of Texas at Arlington","Arlington","56510042"
6296482,32.683117,-97.114334,"America's Best Coffee","Arlington","57240392"
6337972,32.75016,-97.081276,"The Ballpark in Arlington - Texas Rangers Baseball Hall of Fame","Arlington","89334232"
6362982,32.75016,-97.081276,"Texas Rangers","Arlington","74695352"
6364202,32.75016,-97.081276,"Texas Rangers","Arlington","57817662"
6432272,32.750755,-97.098541,"Eddie Deen","Arlington","64273002|qkczfcyqjbfc|qkczfcyqkblc|qkczfcyqpbgc|56784312"
6437792,32.762089,-97.067322,"Hilton Arlington","Arlington","58421702"
6463962,32.738564,-97.105873,"Grease Monkey Burger Shop","Arlington","80611092"
6476482,32.683117,-97.114334,"America's Best Coffee","Arlington","58774262"
6576122,32.710999,-97.067162,"Hiep Thai Market","Arlington","qtdsscyqhbcc|qhwxvcyqjbxb"
6579252,32.683117,-97.114334,"America's Best Coffee","Arlington","59645972"
6679472,32.760773,-97.056755,"Crown Plaza Suites","Arlington","60455432|60455842|77751752|80968432|60456752|60456632|80968572|80969122|60456002|80966942|60456282"
6692052,32.677097,-97.198975,"Southwest Plaza Shopping Center","Arlington","60565212"
6748372,32.735092,-97.11573,"Salvation Army","Arlington","60996302"
6847892,32.723305,-97.180382,"First Church of the Nazarene","Arlington","61820972"
6931302,32.626133,-97.130867,"D&M FITNESS","Arlington","62524512"
6942212,32.683117,-97.114334,"America's Best Coffee","Arlington","62620272"
6956432,32.750755,-97.098541,"Eddie Deen","Arlington","62737162"
6959912,32.756706,-97.052643,"Abundant Harvest Hydroponics & Organics","Arlington","62776192"
6989552,32.671844,-97.201553,"Little O's Patio Bar & Grill","Arlington","63024232"
7003962,32.743423,-97.123276,"Phi Delta Theta Franternity","Arlington","drttqcyqhbhb"
7008942,32.681633,-97.111931,"Petsmart","Arlington","63189422|63189592|67469512|67469612"
7048382,32.710526,-97.173637,"Sacred Grove of the Immortals","Arlington","63521372|63521412|63521422|65230302|65230762|65231142|76717762|76717932|76718052|81288872|81288942|81289042|85211152|85211282|88879412|88879452|88879472|88879482|94839782|100391332|100391452|100391512|100391632|100391972|100392112|100392382"
7053492,32.735531,-97.103432,"J Gilligan's Bar & Grill","Arlington","63568692|67466512|99242642|101085922|101082982"
7069522,32.787987,-97.114807,"River Legacy Park (Parking lot near the restroom building)","Arlington","qpkwvcyqhbrb|qpkwvcyqhbkc|qpkwvcyqjbfb|qpkwvcyqjbnb|qpkwvcyqjbwb|qpkwvcyqkbcb|88665842"
7093802,32.683117,-97.114334,"America's Best Coffee","Arlington","63897602"
7152852,32.735535,-97.155563,"Thriii legged Monkey","Arlington","qchdzcyqjbzb|70723152|qchdzcyqkbfb|qchdzcyqkbnb|qchdzcyqkbgc"
7209022,32.726124,-97.158371,"Lou's Chalet-Ranch House","Arlington","64866242|65941402|67789122|72467172"
7249112,32.755611,-97.099831,"Olenjack's Grille","Arlington","65208402|65210092|65210562|65207312|65198652|65208202|65205512|65208182|65202292|65206602|65210332|65210452|65204542|65205492|65210682|65204642|65207282"
7274072,32.758369,-97.098778,"Sherlock's Baker St Pub & Grill","Arlington","99881732"
7305712,32.707432,-97.165756,"Jumpin Jesse Nutrition , 3901 W. Arkansas Lane #109","Arlington","65686922|dnmgdcyqkbcb|dnmgdcyqlbhb|dnmgdcyqlbqb|dnmgdcyqlbzb|dnmgdcyqlbjc|dnmgdcyqmbdb|dnmgdcyqmbmb|dnmgdcyqmbvb|dnmgdcyqmbfc|dnmgdcyqmbnc|dnmgdcyqnbkb|dnmgdcyqnbsb|dnmgdcyqnbcc|dnmgdcyqnblc|dnmgdcyqpbgb|dnmgdcyqpbpb|dnmgdcyqpbxb|dnmgdcyqpbhc|dnmgdcyqqbdb|dnmgdcyqqbmb|dnmgdcyqqbvb|dnmgdcyqqbfc|dnmgdcyqqbnc|dnmgdcyrcbjb|dnmgdcyrcbrb|dnmgdcyrcbbc|dnmgdcyrdbfb|dnmgdcyrdbnb|dnmgdcyrdbwb"
7305732,32.707432,-97.165756,"Jumpin Jesse Nutrition ","Arlington","65687822|72849122|76093532"
7306032,32.707432,-97.165756,"Jumpin Jesse Nutrition","Arlington","dgzlfcyqhbhc|dgzlfcyqjbcb|dgzlfcyqjblb|dgzlfcyqjbtb|dgzlfcyqjbdc|dgzlfcyqjbmc|dgzlfcyqkbjb|qvxccdyqkbjb|dgzlfcyqkbrb|qvxccdyqkbrb|dgzlfcyqkbbc|qvxccdyqkbbc|dgzlfcyqkbkc|qvxccdyqkbkc|dgzlfcyqlbfb|qvxccdyqlbfb|dgzlfcyqlbnb|qvxccdyqlbnb|dgzlfcyqlbwb|qvxccdyqlbwb|dgzlfcyqlbgc|qvxccdyqlbgc|dgzlfcyqlbpc|qvxccdyqlbpc|dgzlfcyqmbkb|qvxccdyqmbkb|dgzlfcyqmbsb|qvxccdyqmbsb|dgzlfcyqmbcc|qvxccdyqmbcc|dgzlfcyqmblc|qvxccdyqmblc|dgzlfcyqnbhb|qvxccdyqnbhb|dgzlfcyqnbqb|qvxccdyqnbqb|dgzlfcyqnbzb|dgzlfcyqnbjc|qvxccdyqnbjc|qvxccdyqpbdb|dgzlfcyqpbmb|qvxccdyqpbmb|dgzlfcyqpbvb|qvxccdyqpbvb|dgzlfcyqpbfc|qvxccdyqpbfc|dgzlfcyqpbnc|qvxccdyqpbnc|dgzlfcyqqbkb|qvxccdyqqbkb|dgzlfcyqqbsb|qvxccdyqqbsb|dgzlfcyqqbcc|qvxccdyqqbcc|dgzlfcyqqblc|qvxccdyqqblc|dgzlfcyrcbgb|qvxccdyrcbgb|dgzlfcyrcbpb|qvxccdyrcbpb|dgzlfcyrcbxb|qvxccdyrcbxb|dgzlfcyrcbhc|qvxccdyrcbhc|dgzlfcyrdbcb|qvxccdyrdbcb|dgzlfcyrdblb|qvxccdyrdblb|dgzlfcyrdbtb|qvxccdyrdbtb|dgzlfcyrdbdc|qvxccdyrdbdc|dgzlfcyrfbcb|qvxccdyrfbcb"
7367752,32.725094,-97.097382,"skybox sports club","Arlington","66184192"
7394882,32.740982,-97.114273,"Texas Black Belt Academy","Arlington","66430072|74395412|76419162|82241392|90975882"
7428492,32.749256,-97.096741,"Dallas Cowboy Stadium","Arlington","76724742"
7500532,32.710999,-97.067162,"Hiep Thai Market: Yoli's Restaurant @ Food Court","Arlington","dbcvxcyqkbvb"
7539052,32.759026,-97.090668,"Pappadeaux","Arlington","67697362|67698802|67699892|67695372|67686272|67694452|67698622|67694502|67698452|67688282|67694392|67699922|67699972|67690732|67693132|67700442|67690802|67697392"
7606012,32.756306,-97.097755,"Boomer Jack's","Arlington","drnpcdyqkbxb|drnpcdyqlbcb|drnpcdyqmbhb"
7689042,32.683117,-97.114334,"America's Best Coffee","Arlington","68941592"
7750132,32.670738,-97.202538,"Cheddar's Casual Cafe","Arlington","69447762"
7838242,32.681622,-97.111931,"Studio Movie Grill","Arlington","103475792"
7869892,32.735687,-97.108063,"Berachah Cemetery","Arlington","70437402"
7878022,32.75864,-97.076538,"On The Border Mexican Grill & Cantina","Arlington","68076572"
7922762,32.683117,-97.114334,"America's Best Coffee","Arlington","70895172"
7931012,32.75034,-97.067833,"North Central Texas Council of Governments","Arlington","70966932"
7964252,32.740349,-97.131828,"Tandoors India","Arlington","71262392|77059172|83302582"
7967032,32.735268,-97.107773,"100 W Abram St","Arlington","71280902"
8000462,32.679138,-97.110893,"BJ's Restaurant & Brewhouse","Arlington","71592132"
8017992,32.758144,-97.096466,"Hooters","Arlington","71728662"
8034902,32.679138,-97.110893,"BJ's Restaurant & Brewhouse","Arlington","71862852"
8082102,32.673672,-97.200829,"Slender You TX","Arlington","72308312|72308892"
8099452,32.751701,-97.05735,"World Cup Indoor Soccer","Arlington","70148472"
8117092,32.683117,-97.114334,"America's Best Coffee","Arlington","72604832"
8148372,32.735687,-97.108063,"Mind Body and Soul ZUMBA","Arlington","72849792"
8191982,32.771404,-97.114861,"Vanessa's Home","Arlington","70575452"
8297922,32.673191,-97.202515,"Mac's","Arlington","74104302"
8316682,32.683117,-97.114334,"America's Best Coffee","Arlington","74281942"
8354402,32.707432,-97.165756,"Call for date, time and location","Arlington","dhjhwcyqkbkc|dhjhwcyqlbfb|dhjhwcyqlbnb|dhjhwcyqlbwb|dhjhwcyqlbgc|dhjhwcyqlbpc|dhjhwcyqmbkb|dhjhwcyqmbcc|dhjhwcyqmblc|dhjhwcyqnbhb|dhjhwcyqnbqb|dhjhwcyqnbzb|dhjhwcyqnbjc|dhjhwcyqpbdb|dhjhwcyqpbmb|dhjhwcyqpbvb|dhjhwcyqpbfc|dhjhwcyqpbnc|dhjhwcyqqbkb|dhjhwcyqqbsb|dhjhwcyqqbcc|dhjhwcyqqblc|dhjhwcyrcbgb|dhjhwcyrcbpb|dhjhwcyrcbhc"
8365492,32.770885,-97.097107,"River Legacy Parks East Entrance","Arlington","87689732|74691072"
8400302,32.73011,-97.112228,"702 Planetarium Pl","Arlington","74979152|99988452"
8410292,32.749611,-97.135887,"NUSTA'S CAFE","Arlington","75060692"
8437912,32.736683,-97.101189,"Maverick B&G","Arlington","76516592|75313812"
8461782,32.664776,-97.133453,"Adobe Title Company ","Arlington","74569712"
8472022,32.760773,-97.056755,"Crowne Plaza Suites Hotel Arlington","Arlington","90433792"
8584592,32.707752,-97.124023,"YMCA","Arlington","76614382"
8600832,32.758396,-97.098557,"Louie Louie's Dueling Piano Bar","Arlington","82836932|82838942"
8642472,32.696053,-97.182961,"Lake Arlington Baptist Church","Arlington","77108312|84410462|86590652|78644592|84408432|86587092"
8655862,32.73011,-97.112228,"Central Library - University of Texas at Arlington","Arlington","77225392"
8694732,32.737934,-97.100609,"Downtown Arlington Farmers Market","Arlington","77575722"
8708332,32.735687,-97.108063,"Online - CoderCharts","Arlington","77677002"
8717702,32.654881,-97.134125,"QuikTrip","Arlington","77751562"
8728232,32.683117,-97.114334,"America's Best Coffee","Arlington","77846422"
8738812,32.680462,-97.10553,"Dave & Buster's","Arlington","77940612"
8773472,32.673367,-97.090752,"1101 E Bardin Rd","Arlington","78231802"
8797312,32.735374,-97.065674,"Cowboys Dancehall","Arlington","dzxchdyqmbcb|dzxchdyqmblb|dzxchdyqmbtb|dzxchdyqmbdc|dzxchdyqmbmc"
8913192,32.735268,-97.107773,"The Levitt Pavilion","Arlington","81754102"
8962892,32.683117,-97.114334,"America's Best Coffee","Arlington","79869392"
