"venue_id","venue_lat","venue_lon","venue_name","venue_city","all_event_ids"
21060,37.352428,-121.887062,"Watson Dog Park","San Jose","53106172|qxwswcyqkbcc|qxwswcyqmbtb|qxwswcyrcbzb|qxwswcyrdbvb|qxwswcyrfbvb|33040902|40820222|47264322|57140462|100964202"
34100,37.358044,-121.875305,"Watson Park","San Jose","31812972|36196562|46222522|qxwswcyqjbvb"
85234,37.329723,-121.885735,"1st St. Pool Hall","San Jose","6638496|6663050"
87255,37.380001,-121.860001,"Home Town Buffet","San Jose","5226385"
92878,37.335808,-121.86963,"William Street Park","San Jose","6237696|7161035|13901725"
93569,37.349998,-121.879997,"William Street Park","San Jose","79864142"
99037,37.347462,-121.89753,"Border's Book Store","San Jose","5493633"
110237,37.311893,-121.89157,"San Jose Center for Spiritual Living","San Jose","5178416|5225836|5300221|5314633|5328437|5341234|5351089|5367083|5387051|5453917|5406757|5426308|5445629|5465945|6122945|7359787|12162612|12162629|14778857|ktddnypcbzb|nktfqypcbjc|nktfqypdbdb|nktfqypdbmb|nktfqypdbvb|nktfqypdbfc|nktfqypfbdb|nktfqypfbmb|nktfqypfbvb|nktfqypfbfc|nktfqypgbjb|nktfqypgbrb|nktfqypgbbc|nktfqypgbkc|nktfqyphbgb|nktfqyphbpb|nktfqyphbxb|nktfqyphbhc|nktfqypjbcb|nktfqypjbvb|cssdtypjbfc|cssdtypjbnc|cssdtypkbkb|cssdtypkbsb|cssdtypkbcc|cssdtypkblc|cssdtyplbpb|cssdtyplbxb|cssdtyplbhc|cssdtypmbcb|cssdtypmblb|cssdtypmbtb|cssdtypmbdc|cssdtypmbmc|cssdtypnbjb|cssdtypnbrb|cssdtypnbbc|cssdtypnbkc|cssdtyppbfb|cssdtyppbnb|cssdtyppbwb|cssdtypqbcb|cssdtypqblb|cssdtypqbtb|cssdtypqbdc|cssdtypqbmc|cssdtyqcbhb|cssdtyqcbqb|cssdtyqcbjc|cssdtyqdbdb|cssdtyqdbvb|cssdtyqdbfc|cssdtyqfbcb|cssdtyqfblb|cssdtyqfbtb|cssdtyqfbdc|56844222|cssdtyqfbmc|62646552|qswdwcyqhbnb|qswdwcyqhbwb|qswdwcyqhbgc|qswdwcyqhbpc|qswdwcyqjbkb|qswdwcyqjbsb|qswdwcyqjbcc|qswdwcyqjblc|qswdwcyqkbhb|qswdwcyqkbqb|qswdwcyqkbzb|74141472|qswdwcyqkbjc|qswdwcyqlbmb|qswdwcyqmbkc|qswdwcyqnbgb|qswdwcyqnbpb|qswdwcyqnbxb|qswdwcyqnbhc|qswdwcyqpbcb|qswdwcyqpblb|qswdwcyqpbtb|qswdwcyqpbmc|qswdwcyqqbjb|qswdwcyqqbrb|qswdwcyqqbbc|qswdwcyqqbkc|qswdwcyrcbfb|qswdwcyrcbnb|qswdwcyrcbwb|qswdwcyrcbgc|qswdwcyrcbpc|qswdwcyrdbkb|qswdwcyrdbsb|qswdwcyrdbcc|qswdwcyrdblc|qswdwcyrnbnb"
130961,37.319862,-121.947945,"Sino at Santana Row","San Jose","53336232"
145155,37.369999,-121.82,"Egyptian Museum","San Jose","12879101"
155488,37.369999,-121.82,"Alum Rock Park","San Jose","105454152"
158239,37.336632,-121.890152,"Johnny V's Bar","San Jose","5149092|8659582"
160148,37.320953,-121.9478,"Borders Book Store","San Jose","5584664|6025654"
162117,37.311253,-121.804726,"Joy's Home","San Jose","11116262|11188568|11496037|11839626|12021931|11944182|12149280|12086646|12478785|12602970|12703676|13056454|13338336|13499283|13643131|13742242|13942710|14138906|14615071|14731555|14921899|14811045|15334883|15638677|15778432|15955592|16154261|16610679|16653213|17152687|17417141|19924411|23644041|28800701|31502572|31503192|36208702|40168462|40168702|42485682|46822922|50841462|dbpdmcyqdbxb|dbpdmcyqfbwb|dbpdmcyqgbcc|dbpdmcyqhbzb|dbpdmcyqjbvb|dbpdmcyqkbcc|dbpdmcyqlbxb|dbpdmcyqmbtb|dbpdmcyqnbbc|88686742|dbpdmcyqpbwb|dbpdmcyqqbtb|dbpdmcyrcbzb|dbpdmcyrdbvb|9856041|11188504|11485466|11652153|11944204|12086594|12304386|12703649|12875571|13056439|13221253|13499190|13681921|13942818|14046502|14138847|14615119|14574054|14921881|14810997|15334853|15497331|15638761|15778406|15955509|16153565|16602108|16653970|17152737|17416723|19924941|28875081|31504062|31503772|36061072|40168202|40171952|23368121|44993112|46821462|50841932|dhpslcyqdbxb|dhpslcyqfbwb|dhpslcyqgbcc|dhpslcyqhbzb|dhpslcyqjbvb|dhpslcyqkbcc|dhpslcyqlbxb|dhpslcyqmbtb|dhpslcyqnbbc|dhpslcyqpbwb|dhpslcyqqbtb|dhpslcyrcbzb|dhpslcyrdbvb|76668742|qwsmsdyqpbkb|qwsmsdyqpbsb|qwsmsdyqpbcc|qwsmsdyqpblc|qwsmsdyqqbhb|qwsmsdyqqbqb|qwsmsdyqqbzb|qwsmsdyqqbjc|qwsmsdyrcbdb|qwsmsdyrcbmb|qwsmsdyrcbvb|qwsmsdyrcbfc|qwsmsdyrcbnc|qwsmsdyrdbjb|qwsmsdyrdbrb|qwsmsdyrdbbc|qwsmsdyrdbkc"
168192,37.309994,-122.03216,"Holder's Country Inn","San Jose","12306156"
172323,37.34,-121.900002,"Guadalupe Park Visitor & Education Center","San Jose","5136991"
173333,37.310474,-122.01208,"Caffe Adria","San Jose","5150652|5662598|5854816|6196005|12173749"
175410,37.307163,-122.03234,"Top Cafe","San Jose","5644692|5721095|5721097|5854807|5966052"
178660,37.262753,-121.93531,"Pasta Pomodoro","San Jose","12259306|26250231|11519408"
184827,37.336553,-121.889372,"Voodoo Lounge","San Jose","5195343|5271540|5316498|5390002|9532474"
190329,37.279999,-121.830002,"Coyote Creek Parkway","San Jose","5226451"
193850,37.259998,-121.889999,"City Diner","San Jose","5246442|5335344|5732233"
195662,37.343807,-121.913658,"Black Bean Ceramic art center","San Jose","5213978|101577822"
207665,37.363453,-121.941452,"Double D's Sports Bar","San Jose","5317925"
209746,37.36479,-121.907616,"Sushi Coast","San Jose","90713202"
211821,37.330002,-121.889999,"Club Miami","San Jose","5368984"
212663,37.32,-121.919998,"Vicky's Restaurant","San Jose","5374901"
216902,37.304817,-121.89834,"Morning Crane Healing Arts Center","San Jose","42197192|10986567|11136898|11233282|11385109|11593898|11593907|11593911"
225312,37.356762,-121.84713,"Eastside Neighborhood Center","San Jose","78786292|91388262"
225862,37.34,-121.900002,"DoubleTree Inn","San Jose","5453692"
235669,37.349598,-121.89302,"Sushi Maru","San Jose","5472496"
237204,37.33456,-121.888626,"Gordon Biersch Brewery Rstrnt","San Jose","5512681|10051556|48003902|60494882|86126992|104175212"
237784,37.307803,-121.900569,"Aqui","San Jose","11243010|34303422|86844482|qlcbrcyqgbjb|qlcbrcyqhbgb"
243718,37.224583,-121.748672,"Sato Sushi","San Jose","6341341"
246864,37.330002,-121.889999,"Chacho's","San Jose","5576201"
254571,37.320953,-121.9478,"Borders Booksellers","San Jose","5619423|5682391|5838344|5979309|6103734|6249271|6396550|6522646|6976711|7155189|7679820|7921046"
257110,37.337482,-121.8182,"Reid-Hillview Terminal Building","San Jose","8504411"
262653,37.30777,-121.90054,"Petroglyph Ceramic Lounge","San Jose","6433797|69859122"
263257,37.369907,-121.87853,"San Jose Flea Market","San Jose","97709232"
266457,37.2343,-121.87351,"Sheila's","San Jose","7672682|8065956|9318229|9318332|9318371|9318532|9500867|9545133|9624759|9680506|9897877|9923024|9923088|12384162|12449792|12645615|12651511|12642011|13725037"
270221,37.240002,-121.830002,"Alum Rock Regional Park","San Jose","5708437"
272584,37.31985,-121.86552,"Stanley's Sports Bar at Logitech Ice","San Jose","12625252|12716489|14879857|15770766|17117590|17314063|17464719|17535053|18329461|37652522|42716082|51859452|51859822|100158512|102114612"
283707,37.246075,-121.868279,"Almaden Lake","San Jose","5787585|11228925"
291442,37.188992,-121.844872,"Private Home","San Jose","15024722"
305366,37.358326,-121.89021,"Gecko Grill","San Jose","5909532"
306585,37.310001,-121.93,"Left Bank Restaurant","San Jose","5892036"
309738,37.220001,-121.860001,"Private Home","San Jose","5935786"
312142,37.250237,-121.85672,"Starbucks","San Jose","5950272|16013437|77721392|87445682"
312682,37.334118,-121.890923,"Teske's Germania","San Jose","81904182"
314535,37.310001,-122,"Rosicrucian Egyptian Museum","San Jose","5965733"
322244,37.376328,-121.893715,"Office","San Jose","6202498"
324827,37.3283,-121.88468,"San Jose Museum of Quilts & Textiles","San Jose","21502611"
335271,37.259956,-121.91778,"Roy M. Butcher Dog Park","San Jose","5961635|7159082|16406768"
337265,37.352524,-121.905045,"County Admin Building","San Jose","7054953|7688661|7843049|11287653|11494360"
337266,37.36848,-121.91483,"Opson, Inc.","San Jose","6116434|6619174|8039913"
338765,37.310001,-122,"Don Edwards Wildlife Refuge","San Jose","6125907"
348181,37.310001,-122,"Houge Park","San Jose","6193729"
348910,37.33794,-121.883255,"San Jose Peace Center","San Jose","6199238|6452845"
352756,37.26236,-121.918045,"San Jose Dance Sport Center","San Jose","6230865|6360344|6874832"
356821,37.240574,-121.9064,"Sushi Masa","San Jose","6254509"
358579,37.319042,-121.948311,"CineArts @ Santana Row","San Jose","101891012|38217242|38218042|38412972|38415102|38415312|83730992|87790422|103462152"
367615,37.349998,-121.879997,"San Jose State University Student Union","San Jose","6324789"
376276,37.305023,-121.94318,"Marijane Hamann Park","San Jose","12876118|12950267|12876148|12967955|19174861|20490261|22949961|25101521|28135961|28648541|28750281|29649291|29741491|35533592|45810782"
377916,37.34716,-121.867355,"Plaza Garibaldi","San Jose","6790179|7508910"
378811,37.32091,-121.9717,"Harrys Hofbrau","San Jose","9135710|9275154|11871004|15644854|98173922|11720954|17033613|17221489"
379856,37.332775,-121.89248,"The Caravan","San Jose","8873950"
386721,37.25193,-121.875534,"Barnes&Noble Booksellers","San Jose","6452226|6494736|7217799|7217880|7623019|7876444|7876459|8170123|8471269|8668630|8836970|9067146|9257956|9617742|9841617|10124551|10337112|10812559|11263025|11526038|11589741|11734438|11844321|11950016|12009901|12222528|12376734|12531604|12650499|12829885|12990487|13105225|13307737|13390664|13558186|13739356|13951929|14113088|14231938|14343144|fszjpynmbkb|bszjpynmbcc|fszjpynnbhb|bszjpynnbzb|bszjpynpbvb|fszjpynqbkb|bszjpynqbcc|fszjpypcbgb|bszjpypcbxb|fszjpypdbcb|bszjpypdbtb|fszjpypfbcb|bszjpypfbtb|fszjpypgbhb|bszjpypgbzb|fszjpyphbfb|bszjpyphbwb|bszjpypjbcc|fszjpypkbhb|bszjpypkbzb|fszjpyplbdb|bszjpyplbvb|fszjpypmbjb|bszjpypmbbc|fszjpyppbcb"
387841,37.33,-121.79,"NAZ 8","San Jose","6460450|7787412"
389097,37.33,-121.89,"Guadalupe River Park","San Jose","6465749|6597219|6765705"
390294,37.194889,-121.836501,"Almaden Quicksilver County Park - Mockingbird Hill Entrance","San Jose","88733332|dlmktdyqpbpb|dlmktdyqpbxb|dlmktdyqqbdb|dlmktdyqqbmb|dlmktdyqqbvb|dlmktdyqqbfc|dlmktdyqqbnc|dlmktdyrcbjb|dlmktdyrcbbc|dlmktdyrcbkc|dlmktdyrdbfb|dlmktdyrdbnb|dlmktdyrdbwb|dlmktdyrdbgc|69175992|74458642|80743682|88733782|qpmktdyqpbpb|qpmktdyqpbxb|qpmktdyqqbdb|qpmktdyqqbmb|qpmktdyqqbvb|qpmktdyqqbfc|qpmktdyqqbnc|qpmktdyrcbjb|qpmktdyrcbrb|qpmktdyrcbbc|qpmktdyrcbkc|qpmktdyrdbfb|qpmktdyrdbnb|qpmktdyrdbwb|qpmktdyrdbgc"
393355,37.303867,-121.897514,"Monsieur Beans","San Jose","6494472|6522596|7252494|16823175"
400727,37.33485,-121.88808,"PF Changs","San Jose","48004002|48004072|81092902|65653552"
401864,37.337765,-121.86756,"Olinder theater","San Jose","45528792"
402776,37.349998,-121.879997,"Martin Luther King Jr. Library","San Jose","6560749"
406172,37.250284,-121.860315,"Oakridge Mall","San Jose","qxmxldyqmbjc|87670512|94861682|106065462"
407059,37.33972,-121.889946,"First Unitarian Church of San Jose","San Jose","22248161|6588646|7949950|36797242|13534244"
408131,37.33696,-121.88889,"Dive Bar","San Jose","10684134|15922736|12172520|12384323|12709865|13489570|17179538|102801072"
409219,37.330002,-121.790001,"Lake Cunningham Park","San Jose","6603455"
413427,37.249577,-121.83049,"Aqui Cal-Mex (Blossom Valley)","San Jose","8010005"
417774,37.33355,-121.89063,"Circle of Palms/SJ Art Museum","San Jose","82875712"
418412,37.304874,-121.898384,"Gussied Up","San Jose","6664297|11995495"
421455,37.33078,-121.912018,"Mexico Lindo Restaurant & Bar","San Jose","6685311|6895980|6911287|6974794|7069954|7114882|7114890|7224853|7224860|7224863|7224866|8479771|13326194|17380896|94712822|ckkvqypgbqb|ckkvqypgbzb|ckkvqypgbjc|ckkvqyphbfb|ckkvqyphbnb|ckkvqyphbwb|ckkvqyphbgc|ckkvqyphbpc|ckkvqypjbkb|ckkvqypjbsb|ckkvqypjbcc|ckkvqypjblc|ckkvqypkbqb|ckkvqypkbzb|ckkvqypkbjc|ckkvqyplbdb|ckkvqyplbmb|ckkvqyplbvb|ckkvqyplbfc|ckkvqyplbnc|qfxvhcypqbcb|qfxvhcypqblb|qfxvhcypqbtb|qfxvhcypqbdc|qfxvhcyqcbhb|dzctvcyqhbtb|dzctvcyqhbdc|63514012|74713032|74713732|95028992|13911112|14016838|14090928|14222631|14301713|14337561|14403999|14514166|14626126|14681336|14734654|14805920|14938122|15010378|15085699|15087328|15234175|15310968|15394883|15465306|15504799|15598406|15670081|15700918|15788135|15830483|15893371|15994376|bhldqypcbqb|16094339|16182929|bhldqypdbdb|bhldqypdbmb|bhldqypdbvb|bcjnqypdbfc|msfpqypfbmb|msfpqypfbvb|msfpqypfbfc|msfpqypfbnc|xbcvqypgbjb|xbcvqypgbrb|xbcvqypgbbc|xbcvqypgbkc|xbcvqyphbpb|xbcvqyphbxb|xbcvqyphbhc|pslrsypjbjb|pslrsypjbtb|pslrsypjblb|pslrsypjbdc|cwkzvypkbpb|cwkzvypkbxb|cwkzvypkbhc|cwkzvyplbcb|cwkzvyplblb|cwkzvyplbtb|cwkzvyplbdc|cwkzvyplbmc|32341062|34125752|35011542|35830982|dswldcypnbnb|dswldcypnbwb|dswldcypnbgc|dswldcypnbpc|dswldcyppbkb|dswldcyppbsb|dswldcyppbcc|dswldcyppblc|dswldcypqbhb|dswldcypqbqb|dswldcypqbzb|dswldcypqbjc|dswldcyqcbdb|dnlflcyqcbmb|dnlflcyqcbvb|dnlflcyqcbfc|qvsgmcyqcbnc|qvsgmcyqdbjb|qvsgmcyqdbrb|qvsgmcyqdbbc|qvsgmcyqdbkc|qvsgmcyqfbhb|qvsgmcyqfbqb|dxdxpcyqfbzb|dxdxpcyqfbjc|dxdxpcyqgbdb|dxdxpcyqgbmb|dxdxpcyqgbvb|dxdxpcyqgbfc|62400152|qfltvcyqhbkb|qfltvcyqhbsb|qfltvcyqhbcc|qfltvcyqjbgb|qfltvcyqjbpb|qfltvcyqjbxb|qfltvcyqjbhc|qfltvcyqkbdb|qfltvcyqkbmb|qfltvcyqkbvb|qfltvcyqkbfc|qfltvcyqkbnc|qfltvcyqlbjb|qfltvcyqlbrb|qfltvcyqlbbc|qfltvcyqlbkc|qfltvcyqmbnb|qfltvcyqmbwb|qfltvcyqmbgc|qfltvcyqnbcb|qfltvcyqnblb|qfltvcyqnbtb|qfltvcyqnbdc|qfltvcyqnbmc|qfltvcyqpbhb|qfltvcyqpbqb|qfltvcyqpbzb|qfltvcyqpbjc|qfltvcyqqbfb|qfltvcyqqbnb|qfltvcyqqbwb|qfltvcyqqbgc|96704502|96706062|qwncbfyrcbsb|qwncbfyrcbcc|qwncbfyrcblc|qwncbfyrdbgb|qwncbfyrdbpb|qwncbfyrdbxb|qwncbfyrfbgb|94208882|dzntbfyrcblb|dzntbfyrcbtb"
422864,37.338184,-121.88629,"San Jose City Hall","San Jose","9216379|6693645|9839189|11060111|11889571|16882420|34076682|13699267|13156619|33439612|35155962|35997952|37787822"
423812,37.310001,-122,"Zeni Ethiopian Restaurant","San Jose","6699440"
424253,37.308178,-121.901726,"Bill's Cafe","San Jose","6702744|10424454|81274292"
429491,37.319187,-121.859375,"History Park at Kelley Park","San Jose","6736718|10709276|11255728|23638721|8943654|32070642|13579488|13637502|67890802"
431450,37.33425,-121.89462,"La Pastaia","San Jose","6534685"
431459,37.330124,-121.891083,"San Jose Crowne Plaza Hotel ","San Jose","8047213"
432639,37.331867,-121.887316,"Trials Pub","San Jose","9140439|9579912|11400473|15467719|23620631|91818252|97750362"
432780,37.34,-121.889999,"San Jose State University","San Jose","6758972"
435592,37.333042,-121.889755,"Christmas in the park","San Jose","43349662|94476032"
437154,37.253437,-121.86087,"Round Table Pizza","San Jose","17349386"
439755,37.333374,-121.91429,"Wine Affairs","San Jose","12143250|29739551|27495851|58181672|58133182|104028032"
442623,37.259998,-121.889999,"Mountain Mike's Pizza","San Jose","6829864"
442634,37.256012,-121.89692,"Mountain Mike's Pizza","San Jose","6818874|6904877|6937559|6937488|6977020|6975841|6976049|7010228|7010289|7082938|7083021"
444163,37.330914,-121.888214,"Il Fornaio - San Jose","San Jose","15690857"
446492,37.25,-121.779999,"Kepler Learning Center","San Jose","6856969"
449127,37.353966,-121.953003,"Pat's house","San Jose","12087611|16747579"
451140,37.310413,-121.90246,"Halanda Studio","San Jose","7582125|8142654|8978469|8997814|10085729|10085578|10085635|10085668|10506811|10517943|10658391|10658438|10658466|10658468|10658473|11000013|11817570|11817587|slzlnyngbhc|13226928|13226956|13226973|13226990|13227027|slzlnynhbdb|13320781|13511662|14314064|14314004|15406180|15787975|16126606|16126413|16772630|16772699|17203272|17203296|17558786|20403681|20970831|24867531|24867601|29218021|30852601|30852711|37255702|40287142|47564662|dzzgscyqgbbc|dzzgscyqgbcc|dzzgscyqgbdc|dzzgscyqgbfc|dzzgscyqgbgc|dzzgscyqgbhc|dzzgscyqgbjc|dzzgscyqgbkc|dzzgscyqgblc|dzzgscyqgbmc|78495422|qnkdhdyqmbdc|qnkdhdyqmbfc|82806932|82666452|90644712|90645102|qgckhfyrdbgb|qgckhfyrdbpb|102024182|qgckhfyrdbxb|qgckhfyrdbhc|12023902|12023917|12023922|12415335|12415339|12415342|12415343|12686047|12686057|12686061|12686069|mqllnyngbxb|mqllnyngbhc|mqllnynhbdb|mqllnynhbmb|mqllnynhbvb|mqllnynhbfc|mqllnynhbnc|mqllnynjbjb|mqllnynjbrb|mqllnynjbbc|fgbcqypcbpb|fgbcqypcbxb|fgbcqypcbhc|fgbcqypdbcb|fgbcqypdblb|fgbcqypdbtb|fgbcqypdbdc|fgbcqypfbcb|fgbcqypfblb|fgbcqypfbtb|fgbcqypfbdc|14081238|dqvbpcyqdbzb|dqvbpcyqdbjc|dqvbpcyqfbgb|dqvbpcyqfbpb|dqvbpcyqfbxb|dqvbpcyqfbhc|dqvbpcyqgbcb|dqvbpcyqgblb|dqvbpcyqgbtb|dqvbpcyqgbdc|dqvbpcyqgbmc|dqvbpcyqhbjb|dqvbpcyqhbrb|dqvbpcyqhbbc|dqvbpcyqhbkc|dqvbpcyqjbfb|dqvbpcyqjbnb|dqvbpcyqjbwb|dqvbpcyqjbgc|dqvbpcyqkbcb|dqvbpcyqkblb|dqvbpcyqkbtb|dqvbpcyqkbdc|dqvbpcyqkbmc|dqvbpcyqlbhb|dqvbpcyqlbqb|dqvbpcyqlbzb|dqvbpcyqlbjc|dqvbpcyqmbdb|dqvbpcyqmbmb|dqvbpcyqmbfc|dqvbpcyqmbnc|dqvbpcyqnbkb|dqvbpcyqnbsb|dqvbpcyqnbcc|dqvbpcyqnblc|dqvbpcyqpbgb|dqvbpcyqpbpb|dqvbpcyqpbxb|dqvbpcyqpbhc|dqvbpcyqqbdb|dqvbpcyqqbmb|dqvbpcyqqbvb|dqvbpcyqqbfc|dqvbpcyqqbnc|dqvbpcyrcbjb|dqvbpcyrcbrb|dqvbpcyrcbbc|dqvbpcyrcbkc|dqvbpcyrdbfb|dqvbpcyrdbnb|dqvbpcyrdbwb|dqvbpcyrdbgc"
451376,37.25366,-121.860904,"Cheesecake Factory ( Oakridge Mall / San Jose )","San Jose","23022311"
453112,37.24,-121.83,"Roundtable Pizza","San Jose","6904130"
453628,37.330914,-121.888214,"Saint Claire Hotel","San Jose","6907676"
454058,37.387432,-121.902271,"Satina's ","San Jose","6892572"
457732,37.333042,-121.889755,"Circle of Palms","San Jose","6941508"
461782,37.3382,-121.89058,"St. James Park","San Jose","6983265"
463850,37.29046,-121.99148,"Mimi's Cafe - San Jose ( El Paseo de Saratoga)","San Jose","90706812|11652205|13418270|14405583|17570477|36450112|36358232"
467133,37.33213,-121.912766,"Peets Coffee","San Jose","7086381|7141465|7191344"
473819,37.173698,-121.824512,"Almaden Quicksilver County Park - Hacienda Entrance","San Jose","36810402"
476196,37.324898,-121.9115,"Habana Cuba","San Jose","105220592"
476203,37.323418,-121.9349,"Falafel Drive In","San Jose","13277664|17394775|37905332|40927282"
477090,37.371586,-121.922546,"Sprigs (formerly Coffee Garden), Doubletree Hotel","San Jose","7103503"
479422,37.330154,-121.886253,"Motif Lounge & Club","San Jose","11568044|12265099|12423918|12690120|46499572|105716142|105716002|105715562"
484918,37.25157,-121.875496,"Intersection of: Blossom Hill Rd. & Almaden Expressway","San Jose","7154107|7225688|7225833|7154342|7225787|7225822"
485011,37.250916,-121.875206,"Tony","San Jose","7219092"
485094,37.3552,-121.90469,"Rep Zoe Lofgren","San Jose","7181688"
488272,37.383293,-121.89606,"Pizza California","San Jose","7174723"
488969,37.34,-121.9,"Paner Bread (our start location)","San Jose","7134352"
488992,37.29174,-121.88042,"Rinconcito Colombiano","San Jose","5839577"
490456,37.291855,-121.993324,"The Mynt","San Jose","30308011|46154642|52893262|79492972|92728732|103883482"
491223,37.29189,-121.99171," Century 25","San Jose","7194096"
492471,37.335743,-121.891464,"Peet's Coffee","San Jose","7202205"
496467,37.32084,-121.94792,"Rosie McCann's Irish Pub & Restaurant","San Jose","7226613|7465471"
497636,37.324898,-121.9115,"Habana-Cuba","San Jose","7689185"
498642,37.309917,-121.90211,"Goosetown Lounge","San Jose","7149250|13955685|14863837|26803651|16709236|31321802"
499780,37.31,-122,"Shannon's House","San Jose","7245124"
505249,37.35,-121.88,"Center For Creative Living","San Jose","7475539|16407231|16406734|16502939|16545151|16535502|16750605|16777468|jvzpqypfbmb|nclqqypfbnb|16827632|16804374|16826746|16918894|16804419|16919636|16804452|16826969|jvzpqypgbrb|nclqqypgbsb|rclqqypgblc|nclqqyphbqb|rclqqyphbjc|mvzpqypjblb|nclqqypjbmb|mvzpqypkbrb|28207441|mvzpqyplbnb|mvzpqypmbsb|mvzpqypnbqb|mvzpqyppbmb|mvzpqypqbsb|50522682|dvqzncyqdbbc|dzqzncyqdbbc|dvqzncyqdbkc|dzqzncyqdbkc|dvqzncyqfbhb|dzqzncyqfbhb|dvqzncyqfbqb|dzqzncyqfbqb|dvqzncyqfbzb|dzqzncyqfbzb|dvqzncyqfbjc|dzqzncyqfbjc|56559532|dvqzncyqgbdb|ddshqcyqgbdb|dvqzncyqgbmb|ddshqcyqgbmb|dvqzncyqgbvb|ddshqcyqgbvb|dvqzncyqgbfc|ddshqcyqgbfc|dvqzncyqgbnc|ddshqcyqgbnc|69053102|68184982|72743662|72768072|76934932|76939062|83294862|76935172|76935482|76939462|76939652|76939812|87720082|76935712|76935892|76937652|93256342|90450932|97536662|97538072|101307582|97539782|97540932|97541692|97549422|97550392|97551642"
506878,37.237484,-121.827789,"Almaden Lake Park","San Jose","66979482"
506910,37.817448,-122.3682,"Paragon","San Jose","7825770"
513342,37.42735,-121.97904,"Alviso County Marina Park","San Jose","7300456"
515548,37.302338,-121.94988,"Sonny's Conference Room","San Jose","7406736|7475030|8020677|7350047|7406714|7474965|7350013|7875988|7839712|7875990|7875994|7839719|7875996|7875999|8030875|7810966|8124713|7880578|8124729|8030877|8031064|8030879|8031186|8031177|8031190|8489600|8489607|8489608|8489611|8489615|8489617|8489622|9005968|9005966|9005964|9005972|9005975|9005978|9005982|9005983|9005985|9320308|9320309|9320310|9320311|9320312|9320313|9320314|9320315|9825988|9825979|9825990|9825992|9981746|9981750|9981752|9981754|9981758|10402818|10402823|10402841|10543581|10543585|10543588|10543590|10543595|10543603|10543605|10543609|10543613|10814863|10994545|11044558|10994548|10994553|11263826|11263834|11263837|11263851|11263856|11263873|11263878|11538791|11263883|12384937|13078852"
516454,37.30189,-121.82678,"Los Lagos","San Jose","25536571|37990802|45401262|46640392|80818762"
518358,37.192677,-121.834114,"downtown","San Jose","7368750|13857415"
520377,37.362556,-121.90596,"Bamboo Lounge at Silicon Valley Hotel","San Jose","8735510|7383089|12449845|31414162|51203252|51589702|74190242|96837372|102407432|12725181|12674000|13606471|28563391|33451472|44883462|10947112|11398389|12614826|13499731|61474872|52213902"
521730,37.333553,-121.89063,"Fairmont Hotel","San Jose","7392332"
524484,37.37173,-121.97939,"Sky High Sports","San Jose","7408758"
525337,37.25388,-121.86158,"300 [Bowling Lanes]","San Jose","7413764"
525844,37.260395,-121.87785,"Barnes and Noble","San Jose","7416869|7597921|7840170|8017628|8218348"
526403,37.179028,-121.81918,"Almaden Quicksilver Mining Museum","San Jose","7419865|47893152|54080992"
526482,37.33484,-121.88802," Azucar Latin Bistro Mojito Bar","San Jose","7420227|sdhhpynlbfc|vpnhpynlbmc|cpnhpynlbnc|cpnhpynmbjb|cpnhpynmbrb|cpnhpynmbbc|vpnhpynmbjc|cpnhpynmbkc|vxvmpynnbgb|vxvmpynnbpb|15023077|vxvmpynnbhc|vpnhpynnbpc|vpnhpynpblc|15656973|pkjjtypjbrb|pkjjtypjbbc|pkjjtypjbkc|pkjjtypkbgb|pkjjtypkbpb|pkjjtypkbxb|pkjjtypkbhc|pkjjtyplbcb|pkjjtyplblb|29142351|pkjjtyplbtb|pkjjtyplbdc|pkjjtyplbmc|pkjjtypmbhb|pkjjtypmbqb|pkjjtypmbzb|pkjjtypmbjc|pkjjtypnbfb|pkjjtypnbwb|pkjjtypnbgc|pkjjtypnbpc|pkjjtyppbkb|pkjjtyppbsb|pkjjtyppbcc|pkjjtyppblc|pkjjtypqbhb|pkjjtypqbqb|pkjjtypqbzb|pkjjtypqbjc|pkjjtyqcbdb|pkjjtyqcbmb|pkjjtyqcbvb|pkjjtyqcbfc|pkjjtyqcbnc|dfljmcyqdbjb|dfljmcyqdbbc|53127772|djshpcyqfbhb|dnvhpcyqfbqb|djshpcyqfbzb|dnvhpcyqfbjc|djshpcyqgbdb|dnvhpcyqgbmb|djshpcyqgbvb|dnvhpcyqgbfc|djshpcyqgbnc|dnvhpcyqhbkb|djshpcyqhbsb|dnvhpcyqhbcc|djshpcyqhblc|dnvhpcyqjbgb|djshpcyqjbpb|69041212|djshpcyqjbhc|71478432|dnvhpcyqkbdb|djshpcyqkbmb|dnvhpcyqkbvb|dnvhpcyqkbnc|djshpcyqlbjb|77161592|dnvhpcyqlbrb|djshpcyqlbbc|79502882|dnvhpcyqlbkc|79747552|djshpcyqmbfb|dnvhpcyqmbnb|djshpcyqmbwb|83154272|dnvhpcyqmbgc|djshpcyqnbcb|dnvhpcyqnblb|86870192|djshpcyqnbtb|dnvhpcyqnbdc|djshpcyqnbmc|dnvhpcyqpbhb|djshpcyqpbqb|dnvhpcyqpbzb|djshpcyqpbjc|dnvhpcyqqbfb|djshpcyqqbnb|dnvhpcyqqbwb|93518552|dnvhpcyqqbpc|djshpcyrcbkb|dnvhpcyrcbsb|djshpcyrcbcc|dnvhpcyrcblc|djshpcyrdbgb|dnvhpcyrdbpb|104061522|djshpcyrdbxb|dnvhpcyrdbhc|13889248"
527838,37.33632,-121.89378,"Tied House San Jose","San Jose","7428111|8012084"
530141,37.348434,-121.89249,"The Miraido Dance Studio","San Jose","10674695|10736254|10965626|11322858|11323113|11565820|11146039|11718315|11718340|12023926|12023932|12023972|12686080|12686182|12686144|12686184|12686193|hqllnyngbtb|hqllnyngbdc|hqllnyngbmc|hqllnynhbjb|hqllnynhbrb|hqllnynhbbc|hqllnynhbkc|hqllnynjbfb|hqllnynjbnb|hqllnynjbwb|hqllnynjbgc|hqllnynkbcb|hqllnynkblb|hqllnynkbtb|pllpnynkbbc|hqllnynkbdc|hqllnynkbmc|hqllnynlbhb|hqllnynlbqb|hqllnynlbzb|hqllnynlbjc|hqllnynmbdb|hqllnynmbmb|hqllnynmbvb|hqllnynmbfc|pllpnynmblc|hqllnynmbnc|hqllnynnbkb|hqllnynnbsb|hqllnynnbcc|hqllnynnblc|hqllnynpbgb|hqllnynpbpb|hqllnynpbxb|hqllnynpbhc|hqllnynqbdb|pllpnynqbkb|hqllnynqbmb|hqllnynqbvb|hqllnynqbfc|hqllnypcbjb|hqllnypcbrb|15952528|hqllnypcbkc|hqllnypdbfb|hqllnypdbnb|pllpnypdbtb|hqllnypdbwb|hqllnypdbgc|hqllnypfbfb|hqllnypfbnb|hqllnypfbwb"
532498,37.33577,-121.89141,"Picasso's Tapas Restaurant","San Jose","74255582"
532503,37.33234,-121.88484,"Hydration","San Jose","7459597|8076461|9576849|9576855|9576874|9576873|9576885|9576892|9735932|9839084|9900495|9900514|9996713|9996734|9996751|10253808|10253842|10321215|10321344|10426618|10426635|10531705|10593219|11874359|11874369|11874376|11874386"
533714,37.368053,-121.892334,"san jose municipal","San Jose","7787890|102125742"
534545,37.31327,-121.95803,"Dinesh Hebbar's home!","San Jose","7472671|8139216|8236948|8533733|9153165|9253399|9496584|9734147|9835626|10065687|10427458|10692856|10692868|10856388|11047312|11300565|11539362|11662683|11891608"
536414,37.332123,-121.89298,"Family Court","San Jose","7456347"
536491,37.332085,-121.90025,"HP Pavillion [San Jose]","San Jose","7484876"
539074,37.331303,-121.89136,"Parkside Hall","San Jose","7502848"
542367,37.262287,-121.93531,"Armadillo Willy's BBQ","San Jose","13135730|13773758"
543321,37.40719,-121.9386,"The Pines @ North Park (In the clubhouse)","San Jose","7529391"
543557,37.298813,-121.88342,"Dan Burford","San Jose","7531085"
544268,37.33791,-121.89037,"Trinity Episcopal Cathedral","San Jose","7535466"
548387,37.34,-121.89,"Where You Are!","San Jose","7561629"
551950,37.321507,-121.86219,"San Jose Giants Municipal Stadium","San Jose","59462702|62441352|76092872|68997342|19780101|20895341|22238021|23497731|65815632|65815852|67431732|67432022|17712101|70235562|78944202"
552432,37.23756,-121.838783,"Paul's House","San Jose","10953148|dvxzndyqnbmc|ddzzndyqpbjc|ddzzndyqqbgc|ddzzndyrdbhc"
553786,37.360096,-121.9085,"Sushi Zen","San Jose","60594252"
558270,37.327103,-121.943344,"Republican HQ","San Jose","7623611"
558292,37.327103,-121.943344,"Republican HQ","San Jose","7623682"
559012,37.33102,-121.88828,"Plaza de Cesar E. Chavez Monument ","San Jose","7628645"
560394,37.290981,-121.890411,"Divine Science Community Center","San Jose","dlzqbcypnblc|39599792|64530972|17266438|93194852"
561549,37.40222,-121.869385,"Cataldi Park [San Jose]","San Jose","7627500"
565293,37.269146,-121.81359,"Edenvale Public Library, The Community Room","San Jose","7667481"
567685,37.25643,-121.94044,"Houge Park","San Jose","7682368|13117930"
568767,37.26,-121.92,"Guillermo's house","San Jose","7482401"
569702,37.32084,-121.94792,"V Bar (Hotel Valencia) ","San Jose","7694791|16041249"
569724,37.292507,-121.877205,"Second Harvest San Jose","San Jose","7695147|9567954|9977487|12730113|15430959|15431032"
574489,37.301876,-121.82696,"Los Lagos Golf Course","San Jose","32068272|49042642|35598252|64695842"
584773,37.23,-121.79,"Sweet Tomatoes Restaurant","San Jose","7784543"
585664,37.128147,-121.62916,"Golden Oak Restaraunt","San Jose","7790246"
585681,37.39474,-121.90165,"Bible Way Christian Center","San Jose","7790349"
592405,37.363815,-121.907745,"4th Street Bowl","San Jose","12270390|16464552|17746201|24783511|32947562|58003952|96836872|17036511"
596449,37.35,-121.88,"Wyndham Hotel","San Jose","7854531"
602997,37.33305,-121.88677,"Camera 3","San Jose","10630397|11920376|12017516|mfbnnynkbmb|88443552|94512102|mfbnnyqqbsb|mfbnnyrcbpb|99313902|104814842|98527682|16557006|26417851|51328362|99970472|29800321|29801801|29804781|29807851|105029292|105034582|75264562|78502732|81699772"
604242,37.34796,-121.89505,"Yu Ai Kai Japanese American Senior Center","San Jose","19439901"
610223,37.33,-121.89,"Victory Parking Lot","San Jose","7939149"
615597,37.34819,-121.8777,"Casa Vicky","San Jose","7972037"
618143,37.322144,-121.963203,"Barnes & Noble ","San Jose","17946051|14072705"
620398,37.33,-121.89,"The Tech Museum of Innovation","San Jose","8002936"
623688,37.370998,-121.923553,"Regus Business Lounge","San Jose","8024404|8024007|8356251|9070304|9505601|8472844"
624368,37.30771,-121.99635,"Avalon Nightclub","San Jose","8028542|11584540"
628284,37.331135,-121.92775,"SJ Rose Garden","San Jose","8051565"
628299,37.339146,-121.89271,"St. James Park","San Jose","8051638"
628835,37.254276,-121.86142,"300 Bowling Alley","San Jose","41291842"
631727,37.321503,-121.8622,"San Jose Giants Physical Address","San Jose","8071695"
663067,37.169409,-121.750687,"Cinnabar Hills Golf Club","San Jose","12270047|12270083|12361327|12530243|12530258|13123742|13190944|13227280|13304876|13304919|13552874|13719640|14319724|16934918|17187337|17221211|17277782|17388758|17462096|17566885|18835291|18835641|20965191|23986091|25842241|25842481|27328001|27328451|28603931|35138652|38205892|61274312|61274612|62690122|64715452|72638712|72740472"
663069,37.341393,-121.87957,"Vegetarian House","San Jose","13211309|13451666|16659075|45056582|90980792|15485007|16659587|72522282|90959472|102268402|bxhpqypfbrb|23315861|61552992"
663070,37.297359,-121.904762,"Divine Science Community Center Inc","San Jose","17386866|5550909|5659938|5887626|5887558|6064798|6048173|6085867|6213472|6427194|6576525|6576645|6696025|8364202|8609925|8694403|8641619|9087306|9087326|9087333|9087341|9087347|9087357|9522885|9475193|9348062|9522914|9472194|9522924|9607408|9472218|9628590|9609666|9609679|9721810|9609693|9609702|9832320|9726633|9609791|9758204|9609803|9911723|9609819|9609826|10070122|10073571|10073597|10073620|10073640|10080206|10080389|10080510|10080542|10159607|10080569|10082032|10698710|10883651|10883666|10883684|10883697|10883726|10883735|10883742|11257570|10883747|10883772|10883777|10883785|11340664|11608167|11608184|11608193|11608225|11608234|11608262|11608272|11608282|12219784|12219853|12219802|12219863|12219873|12219900|12219916|12219943|12219956|12674373|12724804|12219975|12840258|12840239|12220061|12220071|13037806|13037820|13037838|12878873|13038178|13038193|13038230|13038244|13038254|13541684|13038274|13038291|13038304|13038320|13802323|13802810|13822141|13889008|13889165|13889218|13889245|13889277|13889315|13889358|13889399|13889436|13908801|13802350|13802371|13802393|13802284|13802458|13802525|13802487|13821638|13889465|13874777|14287313|14287342|14287357|14277274|14287370|14287383|jtqdpynmbhb|14287395|14287414|brvkpynmbvb|gcvmpynmbdc|14287427|14464344|14287439|14715346|14673860|fbvmpynnbrb|15080601|brvkpynnbcc|15099826|zbvmpynnbkc|15196375|15196405|14934663|14934709|14990178|15099559|15099602|15149916|15164697|15164708|15227106|15228037|15272240|15344513|14989958|jtqdpynpbkb|fbvmpynpbnb|15196446|14934723|15196497|15196551|15473641|jtqdpynqbhb|15196633|15196683|15691433|brvkpynqbvb|jtqdpypcbdb|15932797|15946651|fbvmpypcbqb|15944944|msvdqypcbbc|16017963|msvdqypcbkc|msvdqypdbfb|15526604|16017997|16018073|16018128|16018145|16018184|16018224|16060261|16103474|16373231|jtqdpypdbjb|msvdqypdbnb|msvdqypdbwb|msvdqypdbgc|msvdqypfbfb|jtqdpypfbjb|vcppqypfbmb|msvdqypfbnb|msvdqypfbwb|msvdqypfbgc|msvdqypfbpc|jtqdpypgbfb|pgwdqypgbkb|pgwdqyphbkb|sfwdqypgbkb|pgwdqypgbsb|sfwdqypgbsb|17305570|pgwdqypgbcc|17305882|vwcwqypgblc|17108329|jtqdpyphbcb|17306205|vwcwqyphbhb|16604316|17373455|17373499|17373547|17373616|17373635|17373722|17373861|17374373|17492240|vcppqyphbpb|17306014|vwcwqyphbqb|vwcwqyphbzb|17306089|vwcwqyphbjc|17306136|vwcwqypjbdb|jtqdpypjbhb|vcppqypjblb|17317312|vwcwqypjbmb|17317337|vwcwqypjbvb|17317362|vwcwqypjbfc|22680032|17317382|vwcwqypjbnc|jtqdpypkbfb|vwcwqypkbkb|vwcwqypkbsb|vwcwqypkbcc|vwcwqypkblc|vwcwqyplbgb|jtqdpyplbkb|vwcwqyplbpb|vwcwqyplbxb|vwcwqyplbhc|vwcwqypmbcb|vwcwqypmblb|33222552|vwcwqypmbtb|vwcwqypmbdc|28018681|vwcwqypmbmc|vwcwqypnbjb|37728342|59023512|17475137|17492287|13874938|17386885|17386886|12287024|16388159|17475044|16428615|17386907|12878301|13890002|spcbpynkblc|spcbpynlbhc|spcbpynmbdc|qrlkpynnbrb|spcbpynnbbc|qrlkpynpbnb|srlkpynpbgc|qrlkpynqblb|qrlkpypfbmb|94134542|13458550|12636033|12635965|12691283|12836651|12839074|12898170|12920232|15059385|15059464|12669321|12836673|12839148|12898280|12920272|15059422|15059485|13440336|27772771|34575242|12669378|12636077|12839114|12898255|14281788|14840761|15154993|15595575|15791821|16349165|16796038|17082122|17484888|29599551|34937452|39112282|42472882|45177712|50314492|53228642|57293062|62875822|65883452|77477242|84377082|83741212|89351672|91965712|97157472|101231992|17386775|12411061|12875530|13054839|jjwlnynhbdc|jjwlnynjbjc|jjwlnynkbgc|jjwlnynlblc|jjwlnynmbhc|jjwlnynnbfc|jjwlnynpbkc|16018409|15965662|19780471|17386805|13866868|56769682|57872192|57872232|57872252|63511972|65884002|65884192|70751332|76447102|76447222|76447312|86410252|86410842|86410902|94260472|96951382|94282472|102899452|105297872|105298222"
663072,37.3192,-121.94864,"Cinearts","San Jose","52356102|10958743|23382921|38855422|53646692"
663080,37.323368,-121.95112,"Tony & Alba's Pizza & Pasta","San Jose","6573683|12854784|12499729|13333335|14273995|17245098|25254071|wsrmnyppbgc|zpsmnyppbgc"
663081,37.332085,-121.90025,"HP Pavilion","San Jose","12747310|16912671|21712281|6637438|6637449|7082854|96076162|16896336|19780981|21714141|25193521|27876801|94856152|21720201|22839781|22865291"
663083,37.333187,-121.887192,"Camera Cinemas 12 downtown","San Jose","7428007|9762863|9766394|12635084|104927452|6551686|7563211|31196212|89843232|12828796|13200284|8588604|9813488|9877335|9877352|9813390|10641328|12772611|12813015|15271688|mfbnnypdbpb|16767647|mfbnnypnbsb|51694962|51695952|mfbnnyqnbqb|87331602|mfbnnyrdblb|104933602|104933942|16805627|9358590|10588922|11048543|11050506|11387094|11516010|11858083|11919578|11959658|11959737|12021423|12090628|12166536|12193137|12193125|12277771|12277777|12380386|12557919|12586763|12715994|12715991|12987746|14112471|14112462|14112438|14486061|28839991|16752957|12635442|16736008"
663085,37.311893,-121.89157,"San Jose Center for Spiritual Living,","San Jose","8371155|9102390|11019737|16937233|qnmpsdyqpblb|qnmpsdyqpbtb|qnmpsdyqpbdc|qnmpsdyqpbmc|qnmpsdyqqbjb|qnmpsdyqqbrb|qnmpsdyqqbbc|qnmpsdyqqbkc|qncnbfyrcbfb|qncnbfyrcbnb|qncnbfyrcbwb|qncnbfyrcbgc|qncnbfyrcbpc|qncnbfyrdbkb|qncnbfyrdbsb|qncnbfyrdbcc|qncnbfyrdblc|16557199|16557251|16557266|9137944|9986554|11461384|11729369|11462455|13227988|15462245|17376444|10435613|15924080|30253531|12675205|46342702|17195363|98566922|85396422|84480812|85401292|85402762|89832872|85518692"
663089,37.333794,-121.893295,"The Blank Club","San Jose","78930502|16032294|16889251|58739092|15753092|17129896|37432472|37730742|43635512|50948292|57583612|35775352"
663090,37.329996,-121.886351,"Agenda Lounge","San Jose","13516685|14202702|14297560|14615395|58692272|5841705|14713991|22883571|13407322|11649626|13034617|14235412|14302022|14385534|14522345|14775015|14935649|15018980|76834782"
663092,37.37817,-121.89555,"San Jose Municipal Golf Course","San Jose","11220271|44967792"
663093,37.257706,-121.876228,"Britannia Arms - Almaden","San Jose","7409047|7554698|12086289|12517947|12797055|13682349|14276098|14481888|15729291|15644279|16361904|17433440|40902692|43898432|50067122|63043552|67596632|74326112|79491832|10938895|8891669|13677261|15109632|38098942|43507112|58008312"
663094,37.331982,-121.890068,"The Tech Museum of Innovation","San Jose","39830932|49473512|12067552|25106491|8832791|9470212|11589846|48004272|81093052|11880541|14674634|11203976|11757034|12377970|12480838|48730182|52491412|54640932|12696919|14748837|14260559|14052269|15685494|35388562"
663095,37.259327,-121.91734,"Butcher Park","San Jose","6247897|6724079|8095429|9028074|9666714|12603386|15854563|17252227|77367822"
663101,37.334583,-121.92325,"Rosicrucian Egyptian Museum","San Jose","gtcknynlbxb"
663102,37.33707,-121.801956,"Lake Cunningham Park","San Jose","10274427|9418721|13273240"
663104,37.320045,-121.947975,"Chili's (Santana Row)","San Jose","15550628"
663105,37.328434,-121.88479,"MACLA","San Jose","6725492|6895804|5589402|13667582|14767316|15289947"
663108,37.33027,-121.88974,"City of San Jose Civic Auditorium","San Jose","26812921|92313122|75316872"
663112,37.290794,-121.888336,"A Work of Heart","San Jose","84893402|95727402|100583482"
663113,37.25519,-121.875653,"Almaden Lake Park","San Jose","23540851|15898777"
663116,37.300297,-121.982155,"Zeni Ethiopian Restaurant","San Jose","10184166|10183632|11807333|11969589|12885028|48033932|99144842|51806352|105920692"
663118,37.34137,-121.928253,"Meeting House","San Jose","7219043|9626100|11750509|14806931|7218996|9626129|11676338|14806982"
663119,37.33599,-121.89244,"Sonoma Chicken Coop","San Jose","43444052|60494762|102477802|15714861|50659522"
663124,37.307053,-122.032372,"Britannia Arms - Cupertino","San Jose","11420461|11446938|11621180|11676424|11752295|11798713|11857457|11908044|11950819|11998356|12095586|12136709|12176987|12238168|12238177|12370626|12502994|12592000|11866466|12701057|29489161|47747602|54127652|67750002|8150298|8150172|8268650|8401362|8494831|8735014|9625731|9726432|9774197|9827614|9885812|9986280|10095244|8874036|10588423|10635739|11978483|12975957|14577054|17417116|17417894"
663126,37.320846,-121.949618,"Starbucks","San Jose","5854744"
663128,37.339844,-121.89332,"Teske's Germania Restaurant, Bar & Beer Garden","San Jose","13741494"
663133,37.33085,-121.886566,"California Theatre","San Jose","16757216|53852502|13484246|12681252|mfbnnypfbpb|12493971|12518469|16817983|16753106|12528443"
663136,37.352806,-121.85543,"Mexican Heritage Plaza Theater","San Jose","7478078|16346325|6011698|6249006|7508843|7240400|13147731"
663138,37.333867,-121.889278,"Silicon Valley Capital Club","San Jose","79562222|13510312|15043271|65476082|79689832|85783672|92168802|60979682|94487822|65477222|85783912|92172582|jnrkqypjbnc|65477822|82619682|85784012|92172752|17318716|17400322|16928053|54209152|67175352|67173532|82620252|89487842|47973052|52376522|55266892|88392002"
663141,37.304855,-121.85211,"Santa Clara County Fairgrounds","San Jose","10110036|10110045|10110066|17057148|16670491|51011592|97764812|16427325"
663143,37.366066,-121.906883,"Center for Creative Living","San Jose","6364770|7046471|7258994|7535802|7880761|8082267|9868075|9796181|10073187|10278344|11034462|11050806|11193806|11151743|11894650|12111751|12747889|13671605|14076517|14142786|14203847|14265197|14270370|14270397|14321584|14319986|14459958|14466586|14011160|14466770|14554584|14529683|14624225|14624633|14788166|14788266|14871029|14788365|14788452|14529306|15018994|15019614|bqzmpynnbsb|14841802|15160621|15183398|15019649|15162023|15162189|hkvrpynnbhc|xlcspynnbhc|15183643|hkvrpynpbcb|xlcspynpbcb|15204973|hkvrpynpblb|xlcspynpblb|bqzmpynpbpb|15430747|hkvrpynpbtb|15504335|15430816|hkvrpynpbdc|15430383|hkvrpynpbmc|15627190|15567332|hkvrpynqbjb|bqzmpynqbmb|15624979|15626577|15708429|15937332|15937445|15937606|15937691|bqzmpypcbrb|15937949|15938056|16052817|16064446|16187857|16192120|16144883|mlhjqypdbcb|pmhjqypdbdb|cmhjqypdblb|pmhjqypdbmb|tmhjqypdbmb|mlhjqypdbtb|pmhjqypdbvb|tmhjqypdbvb|16108780|16108894|cmhjqypdbdc|mlhjqypfbcb|16165413|tmhjqypfbmb|16827352|mlhjqypfbtb|tmhjqypfbvb|16195056|cmhjqypfbdc|tmhjqypfbfc|mlhjqypfbmc|tmhjqypfbnc|17140349|17113227|17113280|nlhjqypgbhb|tmhjqypgbjb|17179589|17180010|17180558|17113176|dmhjqypgbqb|nlhjqypgbzb|wmhjqypgbbc|17382577|17382617|17148726|17382705|dmhjqypgbjc|wmhjqypgbkc|dlhjqypgbdc|17464625|nlhjqyphbfb|17534873|17464549|17538401|17538387|dmhjqyphbnb|mqmzqyphbpb|18102041|18103561|18104411|17581201|18104951|18105331|18105801|nlhjqyphbwb|mqmzqyphbxb|19030861|17331738|dmhjqyphbgc|mqmzqyphbhc|19668001|19667011|19665441|nlhjqyphbpc|mqmzqypjbcb|20874091|plhjqypjbkb|mqmzqypjblb|20993391|20879111|gmhjqypjbsb|20585961|plhjqypjbcc|22923701|21617391|21617941|plhjqypkbhb|23103011|25106021|25106061|gmhjqypkbqb|25106171|plhjqypkbzb|23102711|25106221|gmhjqypkbjc|23531931|25106271|25106481|plhjqyplbdb|28035761|28036811|25109271|28037241|gmhjqyplbmb|28038891|25109321|28040711|plhjqyplbvb|28213651|25109331|28724071|gmhjqyplbfc|25109351|28724731|plhjqyplbnc|xlhjqypmbjb|jmhjqypmbrb|xlhjqypmbbc|jmhjqypmbkc|xlhjqypnbgb|jmhjqypnbpb|xlhjqypnbxb|jmhjqypnbhc|xlhjqyppbcb|jmhjqyppblb|40571102|xlhjqyppbtb|xlhjqyppbmc|42870042|42870422|16190907|42870932|42871392|42871452|42858972|16190949|42871422|54498052|qgfzqcyqfbbc|qgfzqcyqgbfb|qgfzqcyqgbwb|qgfzqcyqhbcb|qgfzqcyqhbtb|qgfzqcyqhbmc|dhfzqcyqjbhb|dhfzqcyqjbzb|dhfzqcyqkbfb|dhfzqcyqkbwb|dhfzqcyqkbpc|qjfzqcyqlbkb|qjfzqcyqlbcc|qjfzqcyqmbgb|qjfzqcyqmbxb|qjfzqcyqnbdb|qjfzqcyqnbvb|qjfzqcyqnbnc|qmfzqcyqqbgb|dnwjxdyqqbhb|94137872|94136292|94139592|qrxjxdyqqbnb|94140312|dnwjxdyqqbqb|94764742|qrxjxdyrcbsb|qrxjxdyrdbpb|11198121|11228192|11200650|11228196|11228410|11228413|11228417|11410400|11483824|11836139|12038322|12221366|12296106|12296146|12295979|12296149|12221414|12432455|12387119|12433914|12436149|12760104|12436210|12713219|12436162|12713250|12436192|dvmknyngblb|12436198|12446445|gzdpnynhbjb|13387093|12446455|12446448|gzdpnynhbbc|bpbhnynhbhc|lpbhnynhbkc|lnbhnynjbcb|bpbhnynjblb|lnbhnynjbtb|bpbhnynjbdc|13938578|qbfznynkbjb|bpbhnynkbrb|dcfznynkbbc|14010043|pcfznynkbkc|qbfznynlbfb|bpbhnynlbnb|dcfznynlbwb|14461620|14563440|qbfznynmbkb|bpbhnynmbsb|dcfznynmbcc|14729119|pcfznynmblc|qbfznynnbhb|14863668|bpbhnynnbqb|14729130|dcfznynnbzb|14863833|pcfznynnbjc|14729135|qbfznynpbdb|bpbhnynpbmb|14729146|dcfznynpbvb|pcfznynpbfc|15585242|15483512|qbfznynqbkb|14729152|bpbhnynqbsb|dcfznynqbcc|pcfznynqblc|qbfznypcbgb|15483527|15418500|bpbhnypcbpb|14729158|cpjwpypcbxb|znjwpypcbhc|14729172|kpjwpypdbcb|15483540|npjwpypdblb|16147922|16041260|znjwpypdbdc|kpjwpypfbcb|16562883|npjwpypfblb|15483255|16150094|cpjwpypfbtb|16150104|16148392|znjwpypfbdc|15483327|16764110|15589715|kpjwpypgbhb|npjwpypgbqb|15483357|16482994|cpjwpypgbzb|znjwpypgbjc|15483384|kpjwpyphbfb|npjwpyphbnb|15483406|cpjwpyphbwb|znjwpyphbgc|15483412|15589736|kpjwpypjbkb|15483432|npjwpypjbsb|cpjwpypjbcc|znjwpypjblc|kpjwpypkbhb|cpjwpypkbzb|znjwpypkbjc|kpjwpyplbdb|npjwpyplbmb|cpjwpyplbvb|znjwpyplbfc|15589759|20416081|kpjwpypmbjb|32973972|cpjwpypmbbc|znjwpypmbkc|kpjwpypnbgb|npjwpypnbpb|cpjwpypnbxb|qcsvbcypnbhc|kpjwpyppbcb|npjwpyppblb|cpjwpyppbtb|npjwpypqbrb|cpjwpypqbbc|kpjwpyqcbfb|qxnbhcyqcbnb|46846802|cpjwpyqcbwb|46847472|kpjwpyqdbkb|46848682|qxnbhcyqdbsb|cpjwpyqdbcc|46848812|kpjwpyqfbjb|46849062|47568142|53659182|53659552|qxnbhcyqfbrb|cpjwpyqfbbc|46849312|kpjwpyqgbfb|qxnbhcyqgbnb|46849512|cpjwpyqgbwb|kpjwpyqhbcb|qxnbhcyqhblb|cpjwpyqhbtb|kpjwpyqjbhb|qxnbhcyqjbqb|cpjwpyqjbzb|kpjwpyqkbfb|qxnbhcyqkbnb|cpjwpyqkbwb|kpjwpyqlbkb|qxnbhcyqlbsb|cpjwpyqlbcc|kpjwpyqmbgb|qxnbhcyqmbpb|cpjwpyqmbxb|kpjwpyqnbdb|qxnbhcyqnbmb|cpjwpyqnbvb|kpjwpyqpbjb|cpjwpyqpbbc|kpjwpyqqbgb|qxnbhcyqqbpb|cpjwpyqqbxb|kpjwpyrcbcb|dpvcvdyrcblb|cpjwpyrcbtb|kpjwpyrdbhb|dpvcvdyrdbqb|cpjwpyrdbzb|kpjwpyrfbhb|dpvcvdyrfbqb|cpjwpyrfbzb|kpjwpyrgbdb|dpvcvdyrgbmb|cpjwpyrgbvb|kpjwpyrhbkb|dpvcvdyrhbsb|12919162|12919642|12987268|12997712|12987351|ljhhnyngbhb|12987532|ljhhnyngbqb|njhhnyngbsb|12997707|12997699|12997690|12997694|ljhhnyngbjc|13346701|ljhhnynhbfb|13346737|13346019|13347375|ljhhnynhbnb|njhhnynhbqb|13454565|13347399|ljhhnynhbwb|13347459|13347419|ljhhnynhbgc|13347430|ljhhnynhbpc|13668942|13682301|13701857|njhhnynjbmb|13682306|13731725|13734090|13733249|13682315|vtqtnynjbcc|13734135|vtqtnynjblc|jjlxnynkbcb|njhhnynkbsb|jjlxnynkbtb|14076239|14203787|14242960|14243042|14243094|14243202|14243282|14309261|14319506|dvlfpynlblb|14372009|14243309|14364078|14371567|14371631|14371871|14459921|14364095|14371826|14371837|14364110|14364020|14554465|14371450|14529711|njhhnynmblb|14541102|skrlpynmbsb|14766426|14624335|14624418|14541792|14541951|zjrlpynmbbc|14767106|vjrlpynmbhc|14542546|14766924|zjrlpynmbkc|skrlpynmblc|14766756|zjrlpynnbgb|15018949|15019630|14766794|zjrlpynnbpb|njhhnynnbrb|14951422|zjrlpynnbxb|15160231|vjrlpynnbfc|15019643|14955755|14955790|zjrlpynnbhc|skrlpynnbjc|15205123|15205072|14955818|zjrlpynpbcb|15205020|zjrlpynpblb|skrlpynpbmb|njhhnynpbnb|15430656|zjrlpynpbtb|vjrlpynpbbc|15504391|15431026|zjrlpynpbdc|skrlpynpbfc|15430620|zjrlpynpbmc|15625407|15572129|15572165|zjrlpynqbjb|skrlpynqbkb|15626376|15572170|zjrlpynqbrb|vjrlpynqbxb|skrlpypcbgb|15925746|15926329|15926336|vjrlpypcbtb|15926339|15926368|16064725|16064762|vhcjqypcbhc|16174764|16064799|16145422|cgcjqypdbcb|vccjqypdbdb|16064823|16406699|vhcjqypdblb|vccjqypdbmb|16502837|cgcjqypdbtb|vccjqypdbvb|16064842|16109120|16571249|16109343|vhcjqypdbdc|16535538|cgcjqypfbcb|16162494|16750646|16777166|vhcjqypfblb|ndcjqypfbmb|dvzpqypfbmb|bmhqqypfbnb|16827626|16827340|16802082|16826708|cgcjqypfbtb|ndcjqypfbvb|16919231|16855377|16802194|ndcjqypfbfc|jmhqqypfbgc|16928553|16919678|16802304|16826941|cgcjqypfbmc|ndcjqypfbnc|17140403|17113295|17113293|jgcjqypgbhb|ndcjqypgbjb|17178319|17215605|17149170|17180288|17111160|gjcjqypgbqb|dvzpqypgbrb|bmhqqypgbsb|17180325|17181878|jgcjqypgbzb|dfcjqypgbbc|17215708|17382627|17148808|17331783|17215042|rnttqypgbjc|dfcjqypgbkc|jmhqqypgblc|17464617|jgcjqyphbfb|17534802|17464521|17506006|17538379|vnttqyphbnb|rcnzqyphbpb|17538430|bmhqqyphbqb|18101661|17837981|17581351|17538495|jgcjqyphbwb|rcnzqyphbxb|17538448|17538519|19032401|znttqyphbgc|rcnzqyphbhc|jmhqqyphbjc|19667411|19667271|19666031|jgcjqyphbpc|rcnzqypjbcb|ngcjqypjbkb|rcnzqypjblb|gvzpqypjblb|bmhqqypjbmb|20986461|20878271|ljcjqypjbsb|20584151|20962981|ngcjqypjbcc|20987711|20987751|22916241|20987911|20988171|20989271|20985991|20989831|ljcjqypjblc|ngcjqypkbhb|23101871|25109741|ljcjqypkbqb|gvzpqypkbrb|25105861|ngcjqypkbzb|23102571|glhjqypkbdc|25110131|ljcjqypkbjc|23533221|ngcjqyplbdb|28211841|28212621|25110631|28212281|ljcjqyplbmb|gvzpqyplbnb|28429041|28652891|25110171|ngcjqyplbvb|28213241|25110201|28723531|ljcjqyplbfc|28429461|25110221|28717831|ngcjqyplbnc|28720551|25110701|chcjqypmbjb|qsvzzypmbkb|25130551|njcjqypmbrb|qsvzzypmbsb|gvzpqypmbsb|32163942|33615902|chcjqypmbbc|njcjqypmbkc|qsvzzypmblc|35432002|34584242|chcjqypnbgb|qqvcdcypnbhb|qsvzzypnbhb|36009622|36318202|36317882|34575592|35434472|35434192|35436912|qqvcdcypnbqb|gvzpqypnbqb|36008272|36318562|35434292|chcjqypnbxb|qqvcdcypnbzb|35435642|36032872|glhjqypnblc|36318692|36317972|dzkxdcypnbgc|njcjqypnbhc|qqvcdcypnbjc|37535272|35435672|36008612|36673492|36318882|36673682|dzkxdcypnbpc|chcjqyppbcb|36010952|39474552|39476502|dzkxdcyppbkb|njcjqyppblb|35435462|gvzpqyppbmb|36009252|40836142|36014392|39478122|dzkxdcyppbsb|chcjqyppbtb|35435482|39476852|39759942|dklkgcyppbcc|42025442|42025552|dklkgcyppblc|chcjqyppbmc|dsvcdcyppbnc|42025752|42026102|dklkgcypqbhb|16174512|dsvcdcypqbkb|39467452|40439882|42026512|42026142|dklkgcypqbqb|16174732|dsvcdcypqbsb|42026452|44504852|42026222|dklkgcypqbzb|44984442|42026392|42026532|dklkgcyqcbdb|dmvjjcyqcbfb|46125622|46183312|dklkgcyqcbmb|46391402|46391962|46392162|46398882|46395172|dklkgcyqcbvb|dmvjjcyqcbwb|dmcqkcyqcbxb|46397882|46394182|46395572|48971002|dklkgcyqcbfc|46391462|dmcqkcyqcbhc|48971462|46394412|48137922|46396182|dklkgcyqcbnc|dmvjjcyqcbpc|dmcqkcyqdbcb|48972402|49841592|49841632|49842482|dklkgcyqdbjb|46387292|46392552|49840882|47502972|49953812|49951562|qpmvncyqdbsb|qpmvncyqdbtb|dncqkcyqdbtb|qpmvncyqdbvb|52280762|qpmvncyqdbwb|qpmvncyqdbxb|49951862|49952652|dqhwmcyqdbbc|dnfwmcyqdbbc|46387332|dncqkcyqdbdc|52285592|53519812|52285912|53604292|52286792|53512312|dqhwmcyqdbkc|dnfwmcyqdbkc|46391742|dncqkcyqdbmc|52280672|dfnrpcyqfbdb|49950872|dqhwmcyqfbhb|dnfwmcyqfbhb|qmnvncyqfbjb|dncqkcyqfbkb|52286572|52284132|dfnrpcyqfbmb|52286592|54497502|52286612|dqhwmcyqfbqb|qmgwmcyqfbqb|54500972|qbczqcyqfbsb|52286712|dfnrpcyqfbvb|54499402|dqhwmcyqfbzb|qmgwmcyqfbzb|qmnvncyqfbbc|56798152|dfnrpcyqfbfc|53741472|54499512|57737372|dqhwmcyqfbjc|drgwmcyqfbjc|57615722|qbczqcyqfblc|dfnrpcyqfbnc|56849812|56797632|drgwmcyqgbdb|qmnvncyqgbfb|ddczqcyqgbgb|56797932|56798022|56798402|58673752|dqhwmcyqgbmb|drgwmcyqgbmb|58677422|58675072|58677882|58677782|58675592|58677822|58677952|56798432|qmnvncyqgbwb|ddczqcyqgbxb|58672942|58678212|58673702|dqhwmcyqgbfc|drgwmcyqgbfc|58675392|ddczqcyqgbhc|58675692|58679252|58679102|58674642|58678422|dqhwmcyqgbnc|drgwmcyqgbnc|qmnvncyqhbcb|qjczqcyqhbdb|qxmnvcyqhbdb|63058182|63058342|59296932|63058752|qjczqcyqhbmb|qxmnvcyqhbmb|63059102|qmnvncyqhbtb|qjczqcyqhbvb|qxmnvcyqhbvb|65540822|65804432|qjczqcyqhbfc|qxmnvcyqhbfc|65804682|65874192|65874722|qmnvncyqhbmc|qxmnvcyqhbnc|65874392|67363252|qzmnvcyqjbhb|qxmnvcyqjbjb|67848982|67385682|dknnvcyqjbqb|qxmnvcyqjbrb|67388012|qzmnvcyqjbzb|qhbfbdyqjbbc|qxmnvcyqjbbc|69802912|69806522|69688762|69689302|dknnvcyqjbjc|69801382|qxmnvcyqjbkc|69807382|67195682|71476012|qzmnvcyqkbfb|dbqdcdyqkbgb|72263562|71483412|72263582|dknnvcyqkbnb|dbqdcdyqkbpb|71482682|72264342|71483442|qzmnvcyqkbwb|73381502|dbqdcdyqkbxb|72144042|71482792|71483562|73381262|dknnvcyqkbgc|73381482|dbqdcdyqkbhc|71482702|73374952|71483642|qzmnvcyqkbpc|73382112|qclpfdyqlbcb|75813062|qbnnvcyqlbkb|72744232|72747612|75813152|dlnnvcyqlbsb|qclpfdyqlbtb|75813202|qbnnvcyqlbcc|qclpfdyqlbdc|75813302|dlnnvcyqlblc|qclpfdyqlbmc|80415752|qbnnvcyqmbgb|qclpfdyqmbhb|80737362|80734462|dlnnvcyqmbpb|qddtjdyqmbqb|dndtjdyqmbqb|qclpfdyqmbqb|77043102|80735552|qbnnvcyqmbxb|qddtjdyqmbzb|qclpfdyqmbzb|80740072|77043182|80737572|82738392|82738162|83873792|dlnnvcyqmbhc|qddtjdyqmbjc|dndtjdyqmbjc|qclpfdyqmbjc|77043342|83942392|82125492|84497732|qbnnvcyqnbdb|84498412|dndtjdyqnbfb|djrqmdyqnbfb|83945272|83942892|dlnnvcyqnbmb|djrqmdyqnbnb|77043432|77045772|qbnnvcyqnbvb|84498422|dlgdndyqnbwb|djrqmdyqnbwb|87021592|87038242|87039102|dlnnvcyqnbfc|87039422|84498452|dlgdndyqnbgc|djrqmdyqnbgc|77043522|88262992|87038672|qccpldyqnblc|82738232|88241612|qbnnvcyqnbnc|djrqmdyqnbpc|88263752|87040412|87038912|88292462|84498512|84498152|djrqmdyqpbkb|77043662|87040732|88717192|90299702|qszhqdyqpbqb|dmnnvcyqpbrb|90309312|djrqmdyqpbsb|88287592|88295922|91709202|88288742|91709692|dlllrdyqpbjc|dmnnvcyqpbkc|84498552|dngdndyqpblc|djrqmdyqpbcc|77043842|91719792|dcnnvcyqqbgb|84498582|dngdndyqqbhb|84498722|88293632|92705642|87041002|92705272|qszhqdyqqbnb|dmnnvcyqqbpb|84498612|dngdndyqqbqb|84498802|77044192|87041132|92705292|88295532|dcnnvcyqqbxb|94561512|94561302|92705562|90450322|92705342|87041302|92705602|92705472|87041442|87041542|98302812|97536942|qpjmcfyrcbsb|100050952|98593332|97538802|100436012|100989242|100988482|100988812|97540022|97541142|103872692|qpjmcfyrdbpb|dztkkfyrdbrb|104590732|djbpkfyrdbxb|qqbpkfyrdbzb|104384572|104588642|104593142|104592472|97542522|97549632|97550772|97551912|104591782"
663144,37.184998,-121.76657,"Calero County Park","San Jose","8899253|9956478|12156780|13462385|6416226|12797929|13196851"
679278,37.332339,-121.889237,"Cesar Chavez Park [Downtown San Jose]","San Jose","8123947|7947329|8292152|12061051|13042223|92142772"
679905,37.321501,-121.8622,"Municipal Stadium ","San Jose","10479390|8353486|10450615|10441441|13266933|14142507|17150731|17150824|26758991|64318112|8640300|13881084|13691118|10336912|10585860|13690893|13335257|23323961"
681807,37.305996,-121.89875,"Downtown Willow Glen","San Jose","8137904|13881187"
683334,37.377636,-121.820144,"Alum Rock Park ","San Jose","8213319|9329499|12380608|18253601|13729229|17538059|16689643"
683638,37.231678,-121.775612,"Starbucks","San Jose","16597812|17033320|17256929|45464152|52115592|67603902|78654892|69782182|67575892|82732332|70199362"
683757,37.323259,-121.958908,"JJ's Blues","San Jose","8149861|9088168|11752900|11898684|12114907|12722188|15486687|29194131|40122622|90624752|14647759|npgrpynnbzb|npgrpynpbdb|15312151|15217463|npgrpynpbvb|15384205|npgrpynqbsb|15548465|15777068|prtfqypcbrb|16023101|npgrpypcbhc|16488446|prtfqypdbnb|16443955|prtfqypfbnb|prtfqypgbsb|npgrpypgbzb|17282507|prtfqyphbqb|prtfqypjbmb|npgrpypjbsb|prtfqypkbsb|prtfqyplbpb|npgrpypmbjb|prtfqypmblb|prtfqypnbrb|prtfqyppbnb|40339722|prtfqypqblb|npgrpypqbrb|44073872|npgrpyqcbnb|prtfqyqcbqb|qwqblcyqcbxb|npgrpyqcbgc|prtfqyqdbmb|qwqblcyqdbtb|npgrpyqdbcc|npgrpyqfbjb|prtfqyqfblb|qwqblcyqfbcc|prtfqyqgbqb|qwqblcyqgbxb|npgrpyqhbcb|prtfqyqhbnb|qwqblcyqhbvb|prtfqyqjbsb|qwqblcyqjbbc|npgrpyqkbnb|prtfqyqkbqb|qwqblcyqkbxb|prtfqyqlbmb|qwqblcyqlbtb|prtfqyqmbrb|npgrpyqmbxb|qwqblcyqmbzb|prtfqyqnbpb|qwqblcyqnbwb|npgrpyqpbrb|qwqblcyqpbcc|npgrpyqqbpb|qwqblcyqqbzb|npgrpyqqbhc|qwqblcyrcbvb|npgrpyrdbzb|qwqblcyrdbbc"
684562,37.334135,-121.8058,"Raging Waters San Jose","San Jose","68185242"
684757,37.331253,-121.908175,"Crema Coffee","San Jose","13444045|13443626|32327452|61691052|14201259|14626233|14650846|91992582"
684769,37.320479,-121.947747,"Vintage Wine Bar","San Jose","12952580|102287832"
690542,37.369471,-121.912785,"Holistic Living Expo","San Jose","8191195"
692211,37.337782,-121.892528,"St. James Park","San Jose","10511758|11078440"
692248,37.343187,-121.888566,"African-American Community Services ","San Jose","8201398"
692409,37.322451,-121.979486,"Round Table Pizza","San Jose","7689144|9018215|7689112|10750374|11385075|13188255|13188313|14982573|17300808|28068651|76510812|9000670|9243236|9345594|12426253|12587207|12779846|13478742|13768471|13936771|12587232|12779821|13478824|13768480|13936916|79562582|8342893|16347446|17196545|11933101|12687912|13338147|14766213|13430203"
693555,37.254276,-121.861418,"300 San Jose","San Jose","6231604|8891074|8978296|9137829"
694352,37.348515,-121.895309,"7Bamboo","San Jose","8216374|11672125"
694573,37.38178,-121.895329,"San Jose Municipal Golf Course","San Jose","41677892|14477576|16220006|40653362"
694662,37.319865,-121.947842,"Santana Row","San Jose","30698311|11383449|qvngqypdbjb"
695383,37.271965,-121.90116,"Kirk Park","San Jose","15374213"
695491,37.335595,-121.893236,"San Pedro Square","San Jose","8698661|12794637|13799171|13687981|14083772|99777922"
695787,37.259955,-121.917778,"Roy Butcher Dog Park","San Jose","53105162|10320895|10532312|10958947|11168522|11706350|12066105|12138178|12460188|12600708|13145903|14210474|14507751|15283293|15521457|16070418|17258151|63678432|71019422|89116732|101543372|104943912|9784170|9901513|10068130|10181147|10481116|10800547|11155374|11424827|12195915|12195936|12326670|12704031|13154501|15005848|17203276|17583258|26250061|11816928|16071437"
697198,37.402446,-121.921332,"Alvison Marina County Park","San Jose","qjlgnyngbkb"
699198,37.262167,-121.876455,"CueTopia","San Jose","49915582|51562092"
699967,37.32084,-121.947922,"Rosie McCann's Irish Pub","San Jose","12359664|6034690|6107163|6244101|6667612|11202730|12725690|13775384|16589051|88914902|14395795|104893392"
699970,37.320942,-121.949333,"Maggiano's Little Italy (Santana Row)","San Jose","13842106|14675684"
700780,37.34111,-121.908066,"Club Rodeo","San Jose","8594708|8866062|9221041|11072346|11874535|12462461|12893464|12893548|12941982|14017329|14115614|11257298|8307172|8392728|8943747|13390603|13472963|13473098|13661779|13728868|13810329"
703034,37.33355,-121.890629,"San Jose Museum of Art","San Jose","7485823|8003060|5899159|6914095|7485468|50150452|70550952|83021842|16425041"
703998,37.305229,-121.908196,"Willow Glen Park (aka Bramhall Park)","San Jose","42962112|42962192|43000612|44251492"
704028,37.341986,-121.910612,"Starbucks","San Jose","9692061|17050198"
704533,37.323646,-121.961838,"La Dolce Velo","San Jose","8291695|8323654|8924769|8907596|8925092|8925095|8925096|8925098|8925218|8925208|9224686|9224695|9224700|9470919|9470943|9496734|9496736|9496737|10079193|10225698|10225728|10225733|10655021|10655035|10655029"
704667,37.336391,-121.898689,"San Jose Center for the Performing Arts","San Jose","9536284|15048585|92374502|16583752|96617422"
704686,37.334812,-121.893478,"Britannia Arms","San Jose","14125952|16709035|25085671|54127872|17444192|12220965|13331385|15305482|15753317|51207052|29647041|qwmbwcyqnbwb|qwmbwcyqnbxb|qwmbwcyqqbbc|qwmbwcyrcbwb|qwmbwcyrdbcc"
705130,37.289962,-121.991851,"AMC Saratoga 14","San Jose","13066281|57682012|58736482|67233952|65767562|65812772|96215422|104759672|55905592|83717142|89175272|90680002|103667712"
705204,37.335286,-121.887083,"Fahrenheit Ultra Lounge","San Jose","13967042|11192990|14318633|9478120|13611141|11678191|11678393"
705894,37.341408,-121.84481,"Emma Prusch Farm Park","San Jose","7991680"
705904,37.392299,-121.816194,"Alum Rock Park","San Jose","8301864|10271419"
707962,37.3407,-121.906717,"Chili's Bar and Grill","San Jose","67142692|84291372|96892162|10776993|10783460"
708692,37.333934,-121.888182,"House of Siam","San Jose","15743347|15743329|15743318|16613208|18109021|22173461|22173421|22172701|34580792|34580342|34580532|41079642|48003622|48003562|43444242|48004602|48004222|48004162|60495342|60494902|81092992"
709829,37.320521,-121.948909,"Park Valencia Santana Row","San Jose","24694451"
710087,37.361422,-121.897148,"Ireland San Filippo","San Jose","9778541"
710140,37.316332,-121.7752,"Evergreen Village","San Jose","8333204"
710896,37.324308,-121.876855,"San Jose Studio","San Jose","8338456"
711263,37.330623,-121.888183,"San Jose Marriott","San Jose","15109502|37324782"
711422,37.305262,-121.931649,"O'Connor Optimal Health Center","San Jose","8584114"
711667,37.252114,-121.875577,"Starbucks","San Jose","8343094"
712115,37.329731,-121.888824,"San Jose Convention Center","San Jose","28375441|15260944|29719751|71443232|ctdmnynhbhc|13417344|13566886|17246793|62863512|60279522|11634568|11634649|11634665|62458462|13193125|13284421|13264849|wqnjpynpbdb|17202843|57083762|67732652|86975212|86975732"
713074,37.26053,-121.931943,"Rangoli India Restaurant","San Jose","13721302|14481915|15705179"
715024,37.319198,-121.94864,"Cine Arts @Santana Row","San Jose","61854022|14575780|18405371|18405491|18405731|18408651|18408931|38305232|38744402|53646722|14394255|14394273|79645562|44377552|60023252"
715981,37.336978,-121.894893,"Peralta Adobe and Fallon House Site","San Jose","39746752|8375957|10855495|100301162"
717187,37.320777,-121.808575,"MILI Corporation","San Jose","8385504|8493411|8499799|8691252|8691368"
718976,37.335246,-121.888064,"Loft Bar and Bistro","San Jose","11277732|11692565"
719073,37.32999,-121.886395,"The Cellar","San Jose","7259037|7242526|7659073|7659089|8079600|8247922|8703931|8876142|10855150|11142820|11193930|11568119|11687330|11692533|12555886|13084431"
719134,37.328595,-121.883495,"City Lights Theater","San Jose","12579763|13743362|14416730|17112702|17278177|52134102|94856552|12579854|14416684|17112673|52132982|94855552|13743487|14416779|16352913|17112726|52134522"
720098,37.318946,-121.9506,"Winchester Mystery House","San Jose","5229222|35234392|8406613|5272970|9840041|15048495|38368722|13104428|48378652"
722178,37.340645,-121.905457,"Panera Bread","San Jose","16064900|8781334|9898063|10229231|10396683|10586854|10597914|13267555|10954683|11136635|12197505|12426912|36893502|37812782|38582152|39821852|40996502|41162802|42192742|42972752|43516672|44351472|44351542|44351612|46372222|47429462|48316722|qqrslcyqcbfc|qqrslcyqcbnc|qqrslcyqdbjb|qqrslcyqdbrb|qqrslcyqdbbc|qqrslcyqdbkc|qqrslcyqfbhb|qqrslcyqfbqb|qqrslcyqfbzb|qqrslcyqfbjc|qqrslcyqgbdb|qqrslcyqgbmb|qqrslcyqgbvb|qqrslcyqgbfc|qqrslcyqgbnc|qqrslcyqhbkb|qqrslcyqhbsb|qqrslcyqhbcc|qqrslcyqhblc|qqrslcyqjbgb|qqrslcyqjbpb|qqrslcyqjbxb|qqrslcyqjbhc|qqrslcyqkbdb|qqrslcyqkbmb|qqrslcyqkbvb|qqrslcyqkbfc|qqrslcyqkbnc|qqrslcyqlbjb|qqrslcyqlbrb|qqrslcyqlbbc|qqrslcyqlbkc|qqrslcyqmbfb|qqrslcyqmbnb|qqrslcyqmbwb|qqrslcyqnbcb|qqrslcyqnblb|dlhjpdyqnbtb|dpmcrdyqnbmc|dpmcrdyqpbhb|dpmcrdyqpbqb|dpmcrdyqpbzb|dpmcrdyqpbjc|dpmcrdyqqbfb|dpmcrdyqqbnb|djwwxdyqqbwb|qlqvbfyrcbsb|qlqvbfyrcbcc|qlqvbfyrcblc|qlqvbfyrdbgb|qlqvbfyrdbpb|qlqvbfyrdbxb|qlqvbfyrdbhc|16064790|dslbfcypnbrb|dslbfcyppbnb|dslbfcypqblb|dslbfcyqcbqb|dslbfcyqdbmb|dslbfcyqfblb|dslbfcyqgbqb|dslbfcyqjbsb|dslbfcyqmbrb|dslbfcyqnbpb|qrgnjcyqfbwb|60188552|51627562|29565591|55919472|25991491|93595182|88323392"
722274,37.303315,-122.02367,"Calabazas Park","San Jose","56917572|57863012|67378842|84136572|dwdwndyqnbhb|dwdwndyqnbzb|dwdwndyqnbjc|dwdwndyqpbvb|dwdwndyqpbfc|dwdwndyqpbnc|dwdwndyqqbkb|dwdwndyqqbsb|dwdwndyqqbcc|dwdwndyqqblc|dwdwndyrcbgb|dwdwndyrcbpb|103860992"
722316,37.390495,-121.885437,"San Jose Jazz Festival","San Jose","14097705|73975732|73977152|73978682"
722571,37.331481,-121.927292,"San Jose Municipal Rose Garden","San Jose","66871482|8427482|44503122|10586773|10872933|13277813|13303141|13396402|13512700|13654071|13693909|13738547|kqtvnynjbcc|kqtvnynjblc|kqtvnynkbqb|kqtvnynkbzb|kqtvnynkbjc|kqtvnynlbdb|kqtvnynlbmb|kqtvnynlbvb|kqtvnynlbfc|kqtvnynlbnc|14683531|14621334|14621255"
722586,37.332497,-121.922298,"Hoover Middle School","San Jose","8427594|8714264|8955045|9086880|17993661"
722664,37.249556,-121.867646,"Emerald Hills Golfland","San Jose","14594451|71830782"
725096,37.346309,-121.851774,"Rancho Del Pueblo","San Jose","11704103|11704286|11848284|12050314|12126433|14776169|27977631"
725602,37.328989,-121.884794,"Stage Theater","San Jose","8477839|11587276|13124194|13773736|100420952|10631833|11587255|13124372|13773760|13773817"
725757,37.335809,-121.86963,"William Street Park","San Jose","14756305|25405241|67629382|8763367|13853399|21779621|72315602|13950327|29316601"
725808,37.262096,-121.820382,"Dolce Hayes Mansion","San Jose","18568101|17346456"
726519,37.260573,-121.876299,"Safeway Almaden - parking lot","San Jose","8441853"
727798,37.329749,-121.90037,"Poor House Bistro","San Jose","16613755|8486175|8943876|8717466|9824673|12716014|31544202|31544292|31544792|31544892|36995342|36997962|50883682|58104082|86879502|97138202"
728439,37.3321,-121.90023,"Guadalupe River Park Arena Green","San Jose","9201145|8474850|11136825|14351873|15770590|42273702"
728504,37.253523,-121.876314,"Chevy's (Almaden Expressway- San Jose)","San Jose","13312169|13812197|14121598|14422713|16165200|74932662|81936592"
728687,37.290436,-121.885975,"Rubio's Fresh Mexican Grill","San Jose","8476933|8781296"
728812,37.32052,-121.948401,"Roux Louisiana Kitchen","San Jose","12342254|13851806|15141041|15435118|15789666|18263441|39172322|39847392|40779542|48564712"
729605,37.371585,-121.922547,"Club Max","San Jose","9703652|9675677|9672563|11687101"
733297,37.23221,-121.884122,"Meridian and Oakglen","San Jose","8515173|8557094|8665836|11080634|11104254|11162101|11262152"
733396,37.338524,-121.894227,"Discovery Meadow","San Jose","8516111|8940066"
734258,37.279782,-121.840872,"Capitol Drive-In Theatres","San Jose","8522664|29653771|8301336|8529366|8874072|11163462|25903561"
735071,37.320479,-121.947747,"El Jardin Restaurant","San Jose","8529152|10226387|14166508|qrhqwcyqhbdc|qrhqwcyqhbmc|qrhqwcyqjbhb|14659859"
736217,37.33559,-121.888632,"San Jose Improv","San Jose","13664771|13906780|6465798|6657293|7707510|16730641|74692292|80965202|95832742|102852312|12391405|38614902|63257912|74688322|89542122|96057042|101457562|68850242|16730589|89543922|95833952|10576210|17957851|16240132|43636602|63255442|74449032|74693922|88086542|89542992|92244132|95832572|96100382|14479101|83978052|16730518|17544007|63250572|69052252|74449432|89541132|95833822|63254522|74442342|91854132|95816752|102851272|76750232|69183422|95832872|69205142|74450822|89542502|96100242|106059542|106060222"
737345,37.319546,-121.865265,"Sharks Ice at San Jose","San Jose","95662802|12702166|19779231|23935811|33309602|54476192|70166132|90246882|15564858|16803552|20958101|17116715|17117449|50518862"
737492,37.278595,-121.880193,"Sherwood Inn","San Jose","8774104|9953337|12151649|14473054|15231387|15901475|16709056|19421541|23882401|37713112|50493762|54758612|95104702|100137392"
741251,37.321457,-121.950587,"Fuel Restaurant and Lounge","San Jose","9757718|10738179|10116533|10859024|11628458|10111976|10456976|10569186|10735693|10804610|11398164"
741961,37.326276,-121.892427,"Childrens Discovery Museum","San Jose","11352536|8228208|12493889|16176698|11209188|88008402"
743774,37.319197,-121.948695,"Thea Mediterranean Cuisine","San Jose","gxppnynkbcc|17550842|75469782"
744376,37.362481,-121.909064,"Art of Living Center","San Jose","15930711"
744662,37.332082,-121.89006,"Plaza De Cesar Chavez Park","San Jose","10155914|59771642|60351402|13118463|14092160|15424356|13118438|59772132|60451902|8608129|14875893"
744717,37.320069,-121.947741,"Pasta Pomodoro","San Jose","10958761"
745575,37.309582,-121.897835,"The Music Place","San Jose","8616215|8616368|8716679|8816832|8909953|9011948|9132279|9132293|9169624|9293140|9516317|9516327|9436119|9677525|9677655|9545836|9677662|9593737|9792052|10027655|9847153|10027668|9905050|10218457|10218465|10004908|10058302|10115936|10403074|10166172|10403110|10403080|10403114|10403083|10545847|10545863|10545992|10606525|10606542|10606533|10606548|10606539|10606552|10933162|10933172|10933183|11024496|11024856|10803328|11024519|11024925|11024799|11024971|11024810|11024989|11024827|11246225|11246276|11246243|11246287|11246258|11246299|11246309|11436951|11545625|11545658|11545633|11545660|11545647|11545699|11545652|11545707|11794678|11794713|11794687|11794724|11794696|11794730|11794707|11794743|11981644|11981715|11981680|11981725|11981692|11981735|11981705|11981743|11981707|12066231|12066239|12277274|12277470|12277359|12277474|12373178|12277464|12277483|12523510|12523532|12523520|12523552|12523559|12743911|12743992|12743932|12744001|12743944|12744012|12743953|hqsgnynfbgc|pqsgnynfbmc|hqsgnynfbpc|rrsgnyngbfb|pqsgnyngbhb|hqsgnyngbkb|rrsgnyngbnb|pqsgnyngbqb|hqsgnyngbsb|rrsgnyngbwb|pqsgnyngbzb|hqsgnyngbcc|rrsgnyngbgc|pqsgnyngbjc|hqsgnyngblc|rrsgnynhbcb|pqsgnynhbfb|hqsgnynhbhb|rrsgnynhblb|pqsgnynhbnb|hqsgnynhbqb|rrsgnynhbtb|pqsgnynhbwb|hqsgnynhbzb|rrsgnynhbdc|pqsgnynhbgc|hqsgnynhbjc|rrsgnynhbmc|pqsgnynhbpc|hqsgnynjbdb|rrsgnynjbhb|pqsgnynjbkb|hqsgnynjbmb|rrsgnynjbqb|pqsgnynjbsb|hqsgnynjbvb|rrsgnynjbzb|pqsgnynjbcc|hqsgnynjbfc|rrsgnynjbjc|pqsgnynjblc|hqsgnynjbnc|hqsgnynkbkb|rrsgnynkbnb|pqsgnynkbqb|hqsgnynkbsb|rrsgnynkbwb|pqsgnynkbzb|hqsgnynkbcc|rrsgnynkbgc|pqsgnynkbjc|hqsgnynkblc|rrsgnynkbpc|pqsgnynlbdb|hqsgnynlbgb|rrsgnynlbkb|pqsgnynlbmb|hqsgnynlbpb|rrsgnynlbsb|pqsgnynlbvb|hqsgnynlbxb|rrsgnynlbcc|pqsgnynlbfc|hqsgnynlbhc|rrsgnynlblc|pqsgnynlbnc"
745933,37.336831,-121.892661,"Moroccos Restaurant ","San Jose","8881516|14390635"
746945,37.321836,-121.947805,"Pizza Antica ","San Jose","14258685|83397822"
747103,37.320046,-121.947972,"Sino","San Jose","92231752"
747249,37.316246,-121.977289,"Moorpark Hotel","San Jose","10587527|10580213"
748860,37.340054,-121.889931,"San Jose Athletic Club","San Jose","26383221|51358852|67378672|67779902|69787292|69787152"
749115,37.221254,-121.867336,"Parma Park","San Jose","47453862"
750100,37.302913,-121.8429,"Kelly Park & History San Jose","San Jose","8652739|50632942|13114835|13111707"
750105,37.223341,-121.780181,"Santa Teresa County Park ","San Jose","10322168|11816474|11939314|13787812|13821363|13918817|13957342|14154274|14347820|14437881|14470466|drhkpynmbkb|drhkpynmbsb|drhkpynmblc|16617090|vnzvqypgbjc|19746151|vnzvqypjbtb|pstnvypkblb|pstnvypkbmc|prhhzyplbjc|38418412|dggjlcyqfbcc|dggjlcyqgbxb|dggjlcyqgbhc|drmxtcyqhbdb|59447682|drmxtcyqhbmb|drmxtcyqhbvb|drmxtcyqjbrb|qrqzcdyqlbdb"
750131,37.336117,-121.869087,"Bark in the Park 2010: Historic Naglee Park","San Jose","8653180"
753583,37.364722,-121.867297,"Emma Prusch Farm Park","San Jose","17266970|55442692"
754549,37.294661,-121.988082,"Chevy's Fresh Mex","San Jose","10309389"
755415,37.332272,-121.886078,"Camera 3","San Jose","15829869|13745035|61104702|mfbnnynmbnb|mfbnnynnblb|mfbnnynpbqb|mfbnnypjbnb|22590531|mfbnnypkblb|mfbnnypqbmb|mfbnnyqdbnb|51970952|mfbnnyqgbrb|61673442|mfbnnyqkbrb|11986742|12586777|12586769|16001597|12471941|11921387|12635759|12635765|12801969|12801979|15707851|15707859"
755771,37.306038,-121.93129,"Sam's BBQ","San Jose","11480477|16087060|36450262|46543472|55297802|61979242|70749902"
759452,37.250571,-121.861167,"Century 20 Oakridge","San Jose","11294462|11294663|11710865|12557912|12586779|22173521|14667334|12478219"
761141,37.334192,-121.886175,"The San Jose Repertory Theater (""The Rep"")","San Jose","9813445|12681320|51695472|88329052|10625838|13824242|32317642|64849372|81271132|88215802|22468861|79518872|36561282|41820522|56994862|33469402|35074982|35078532|46713272|46716282|57956152|62871732"
762422,37.266338,-121.793884,"Silver Creek Sportsplex","San Jose","14526929|13746518|16567033|17314058"
764159,37.25492,-121.903132,"Mariah Denniston","San Jose","12435336|12541230|12698771|13837747"
765768,37.331372,-121.886952,"Cafe Trieste","San Jose","8777636|9082123|9144298|18579771|15699340"
766724,37.2411,-121.807533,"Cynthia's Friday Game","San Jose","9379045|9519498|9830805"
766886,37.256332,-121.94398,"Houge Park","San Jose","13779541|14180781|14515047|dgjjpynmbgb|dgjjpynmbpb|dgjjpynmbxb"
767820,37.332245,-121.892791,"KBAY Radio Station","San Jose","8793169|8793173|8834625|8793171"
770083,37.312936,-121.949671,"Starbucks","San Jose","8811333|9997585|11016175|13858099"
770498,37.292148,-121.994652,"Frankie, Johnnie & Luigi Too!","San Jose","50094462|57960202"
770848,37.268237,-121.905678,"Cardinal Lounge","San Jose","11866407|13408155|13963888|10278900|10865782|11430527"
770928,37.317847,-121.948469,"Rockefeller Business Center","San Jose","8817773|8908924|9065987"
772154,37.335261,-121.891424,"Entrepreneur Center","San Jose","8826221"
773353,37.369471,-121.912785,"Holiday Inn","San Jose","8835972|10353006|9841847|10223745|9236431|9556593|10776523|13583419|14041980"
774820,37.34029,-121.903786,"Panera Bread  - Coleman / San Jose","San Jose","8847179|7957636|10876300|13264803|13528583|13682035|14012719|16617508|cqlpsypjbtb|cqlpsypjbdc|cqlpsypjbmc|cqlpsypkbjb|cqlpsypkbrb|cqlpsypkbbc|26324331|cqlpsypkbkc|cqlpsyplbfb|cqlpsyplbnb|cqlpsyplbwb|cqlpsyplbgc|cqlpsyplbpc|dtlkbcypmblb|dtlkbcypmbsb|dtlkbcypmbcc|dtlkbcypmblc|qzrxccypnbhb|qzrxccypnbqb|37441442|qzrxccypnbzb|qzrxccypnbjc|39141282|39373342|qzrxccyppbdb|40025952|qzrxccyppbmb|qzrxccyppbvb|41600132|41646202|42027592|qqhghcyppbnc|43196902|qqhghcypqbkb|qqhghcypqbsb|44719532|44512342|44512472|46504692|qfgqkcyqcbpb|qfgqkcyqcbxb|qfgqkcyqcbhc|qfgqkcyqdbcb|qmddpcyqdbdc|qmddpcyqdbmc|55271092|qmddpcyqfbkb|qmddpcyqfbsb|qmddpcyqfbcc|qmddpcyqfblc|58858332|ddhjscyqgbpb|ddhjscyqgbhc|drrmtcyqhbdb|drrmtcyqhbmb|drrmtcyqhbvb|drrmtcyqhbfc|dcsdxcyqhbnc|dcsdxcyqjbjb|dcsdxcyqjbrb|qzwwbdyqjbkc|qzwwbdyqkbgb|qzwwbdyqkbpb|qzwwbdyqkbxb|qzwwbdyqlbcb|85043162|82185012|80013682|99598052"
776755,37.335857,-121.894096,"The Old Spaghetti Factory","San Jose","8901630|16013909|23620391|68887232|85264902|15301324|15393113|96028932"
777162,37.302576,-121.889961,"Cinelux Almaden 5","San Jose","96179912|103540902"
777181,37.320043,-121.951949,"Winchester 22- Century Theatres","San Jose","66255552|71088732|72927942"
778224,37.371327,-121.922697,"Double Tree Hotel -- San Jose","San Jose","12888312|8700459|13136217|13867238"
779285,37.326364,-121.817852,"AMC Eastridge","San Jose","16496760|16820346"
780153,37.320046,-121.947972,"Amber India ","San Jose","gxppnynhbjc"
780338,37.22163,-121.868149,"Almaden Branch Library & Community Center","San Jose","11059846"
781281,37.333538,-121.878545,"San Jose State Aquatics Center","San Jose","8900516"
787544,37.306794,-121.901544,"Starbucks","San Jose","8944721"
788207,37.292763,-121.890198,"Our Sacred Space","San Jose","8972133|8978327|9044798|9056694|9087266|9041614|9069315|9226128|9165075|9261340|9156759|9607326|9801447|9827023|9736089|9827196|9827245|9801266|9804228|9956631|9956674|9986718|10072573|10017534|10184446|10002937|9899540|10017645|10354183|10637728|12203875|74687022|9815782|9854162|9815464|9923185|9954105|9954371|10050828|9984588|10050857|10146472|10183758|10243687|10426850|10507698|12186443|74683142"
789799,37.2925,-121.876311,"Second Harvest Food Bank","San Jose","10456689|16207192|11260723|12147984|13238488|14343259|36466242|42847752|35077372|43767222"
790157,37.321655,-121.947909,"Straits Cafe","San Jose","13911220|11101010|61372072|gxppnynhbqb|gxppnynkbkb|gxppnynlbgb|gxppnynlbxb|gxppnynmbcb|gxppnynnbrb|gxppnynpbnb"
790396,37.250571,-121.861167,"Cheesecake Factory","San Jose","36657752"
790565,37.251066,-121.870892,"Denny's","San Jose","64893462"
790788,37.367013,-121.918308,"Gaia Online","San Jose","8835991"
792807,37.292836,-121.990174,"Maxim's","San Jose","15541282"
795273,37.251115,-121.868365,"The Fish Market","San Jose","44875112|96393192"
798816,37.32052,-121.948401,"The Counter","San Jose","14538887|13667533|14865347"
798829,37.308639,-122.012122,"CPAA Arts Center","San Jose","14511326|16528089|18258611|50156212|56895512|79880102|89792752|10126705|10173320|10383833|10661642|14511125|9038500|9112458|16528269|16528307|89793492"
799117,37.250571,-121.861167,"BJ's Brewhouse","San Jose","59783772"
799342,37.32093,-121.948269,"Hotel Valencia @ Santana Row","San Jose","11036100"
800588,37.380445,-121.894838,"Nadia's Center","San Jose","9052372|9089073|9113563|9089031|9113599|9162387|9162434|9245310|9731956|9732023|9868328|9868353|9994351|10910634|11332909|11538861"
803146,37.334638,-121.893578,"MLK Library","San Jose","9074077"
803354,37.292237,-121.995399,"Color Me Mine","San Jose","17236023"
804046,37.326778,-121.817246,"Eastridge Mall","San Jose","35624752"
804732,37.247124,-121.827789,"Marlenes House","San Jose","31412962"
805616,37.361378,-121.908145,"Wyndham Hotel San Jose","San Jose","36041322|42021362|14261252|pkfhzypmbcb"
805646,37.336202,-121.886304,"Flames Eatery & Bar","San Jose","9164406|17386088"
805848,37.303676,-121.909264,"Frank Bramhall Park","San Jose","13526043|24039371"
806364,37.29121,-121.989528,"Westgate Mall","San Jose","95093832"
806783,37.333843,-121.880147,"San Jose State Event Center Arena","San Jose","12497397|15175418|13119682"
808921,37.272493,-121.889262,"Paul Moore Park","San Jose","9497012|9548918|9587288|9642877|9642903|9712959|9810374"
814379,37.33546,-121.892052,"Santa Clara and Market Street","San Jose","90237732"
815349,37.238377,-121.777962,"Reformation Studio","San Jose","9974928|10488290"
815485,37.25131,-121.869129,"Black Angus Restaurant","San Jose","86586542|17342328|16613171|16613153|18109341|48004122"
816779,37.25354,-121.860441,"JavaLand","San Jose","9986855|10414378|11017481|11097693|11157207|11259749|11257798|11282436|11608056|11608628|11836935|9977033"
816913,37.289956,-121.992297,"Red Robin","San Jose","13618934|14655663"
817857,37.240961,-121.874801,"Sonoma Chicken Coop","San Jose","19588561|95315632"
818004,37.302344,-121.979264,"West Valley Branch Library","San Jose","11207714|11207734|14557264|28526131"
819657,37.362904,-121.909149,"Menara Moroccan Restaurant","San Jose","9497492|71842942|91684782|102255152|50189952|56166232|59413882"
821104,37.333043,-121.889753,"Bijan Bakery","San Jose","9223862|44255962"
822229,37.195213,-121.836159,"Almaden Quicksilver County Park - McAbee / Mockingbird Hill Lane","San Jose","9950706|10013313|11842669|12963874|13165539|13302750|sgwnpyphbzb|12839113|16195768|65574352|16236771|49917012|30489551|88567142|103563702"
823154,37.329251,-121.890625,"Hilton San Jose","San Jose","65441132|65441872"
824993,37.332021,-121.926563,"Rose Garden Branch, San Jose Library","San Jose","nnshqypcbhc|nnshqypdblb|nnshqypdbdc|nnshqypfblb|nnshqypfbdc|nnshqypgbhb|nnshqypgbzb|nnshqyphbfb|nnshqypjbsb|nnshqypjblc|nnshqypkbhb|nnshqypkbqb|26250411"
826689,37.345307,-121.924429,"Rebecca's","San Jose","11635390|11673347|12182724|12557264|12548885|12799056|12799152|12815041|12799091|12887221|12887224|13003636|13081235|13211157|13206551|xmzcpynkbkc|xmzcpynlbfb|xmzcpynlbnb|xmzcpynlbgc|xmzcpynlbpc|xmzcpynmbkb|xmzcpynmbsb|xmzcpynmbcc|xmzcpynmblc|xmzcpynnbhb|xmzcpynnbqb|xmzcpynnbzb|xmzcpynnbjc|xmzcpynpbdb|xmzcpynpbvb|xmzcpynpbfc|xmzcpynpbnc|xmzcpynqbkb|xmzcpynqbsb|15735557|xmzcpynqbcc|xmzcpynqblc|15823636|xmzcpypcbgb|whndqypcbkb|xmzcpypcbpb|whndqypcbsb|15823632|whndqypcbcc|15823634|whndqypcblc|xmzcpypdbcb|whndqypdbgb|xmzcpypdblb|whndqypdbpb|xmzcpypdbtb|whndqypdbxb|16621130|whndqypdbhc|xmzcpypfbcb|whndqypfbgb|xmzcpypfblb|whndqypfbpb|xmzcpypfbtb|whndqypfbxb|xmzcpypfbdc|whndqypfbhc|xmzcpypfbmc|whndqypgbcb|xmzcpypgbhb|whndqypgblb|xmzcpypgbqb|whndqypgbtb|whndqypgbdc|xmzcpypgbjc|whndqypgbmc|xmzcpyphbfb|whndqyphbjb|xmzcpyphbnb|whndqyphbrb|whndqyphbbc|drjmqypjblc|whndqypjbfb|xmzcpypjbkb|21065971|xmzcpypjbsb|xmzcpypjbcc|whndqypjbgc|whndqypkbcb|xmzcpypkbhb|pdspvypkbtb|cqbgwypkbzb|24531451|pdspvypkbmc|pdspvypmbdb"
826899,37.376534,-121.861351,"Penitencia Creek_Jackson Ave.","San Jose","wshgnyngbnb|17269879"
829294,37.334331,-121.88966,"Billy Berk's","San Jose","14042307|48004302"
829297,37.261654,-121.925751,"Cambrian Bowl","San Jose","14093634|16890855|10193639|12543907|25663731"
830306,37.342422,-121.715942,"Joseph D Grant County Park","San Jose","6057707|6165363|6757733|10147986|10531198|10642285|10732152|11296821|14543372|11788963|13200963|16882544|17126813|76915582"
831107,37.347871,-121.894064,"Taiko San Jose","San Jose","9316990"
833173,37.332196,-121.886155,"ComedySportz","San Jose","77734182|12636278|12752200|15048158"
836452,37.319198,-121.94864,"CinArts @ Santana Row","San Jose","14546391|48312162|64093502|94066862|22709221|18346321|18398721|18398981|18399371"
836831,37.335755,-121.886102,"Martin Luther King Library","San Jose","13964441|13964487|57128472|62874682|52193292|13772989|52276332|104929302|9696217|14551722|15453004|53856262"
839155,37.333042,-121.889755,"Fairmont Hotel - Floor B - Crystal Room","San Jose","10190914|10727783"
840688,37.308228,-121.925423,"Yogashmoga SJ Studio","San Jose","11307066|11750336|12447163|13183478|kvgtpynpbjb|kvgtpynpbrb|kvgtpynpbbc"
843919,37.261654,-121.925834,"Round Table Pizza","San Jose","31484562"
844099,37.336055,-121.890059,"12 FIRST Studio","San Jose","9564801|9450510|9664850|9774720|9774761|9774716|9953110|10116469|10221383|10221457|9953146|10534208|10947592|10947527|11857419|11966525|12930799|xhjhnynhbhb|xhjhnynjbdb|xhjhnynkbkb|xhjhnynlbgb|14504714|xhjhnynmbcb|14660271|xhjhnynnbjb|16983012|40322752|39974172|45543632|46568872"
845882,37.330864,-121.887817,"Il Fornaio (at the Sainte Claire Hotel)","San Jose","13229178|13323569"
846762,37.220399,-121.84742,"Leland High School","San Jose","11417865|11476602|11543207|11646816|11703685|11748263|11865471|11924778|11958924|12023495|12114427|12146304|12196031|10190796|11395866|11643470|14124749|15026482|35380202|86168032|fpnvnynjbbc|fpnvnynjbkc|fpnvnynkbgb|14048832|15432999|36050832|91002522"
847273,37.336311,-121.884949,"San Jose State University Theater","San Jose","11963613"
847341,37.295533,-121.931592,"The Garret pizza place","San Jose","14580876|102615422"
847588,37.394453,-121.841294,"Berryessa Library","San Jose","14097886"
848323,37.231678,-121.775612,"Starbucks","San Jose","16973469|12714480|12825893|16338650|79066412|9488513|14714057|14796078"
849670,37.39,-121.9,"Jen's House","San Jose","9484156"
850504,37.239198,-121.869193,"Almaden Lake Park","San Jose","13702156"
851770,37.264309,-121.864864,"COFFEE NET  (Free WiFi)","San Jose","9519020|9580480|9750685|9953203|10317499|12332729|12930752|xhjhnyngbkb|18661761"
852194,37.322146,-121.963283,"Barnes & Noble","San Jose","11045012"
852355,37.321891,-121.969893,"Paramount Tumbling & AcroGymnastics","San Jose","9521978"
853842,37.33932,-121.886741,"Le Petit Trianon Theatre","San Jose","9975109|100421812"
854077,37.321655,-121.947909,"Cocola Bakery","San Jose","104484522"
854282,37.349988,-121.892198,"San Jose - Japantown","San Jose","16825705|27278911|30468941|10207492|14828975|16819735|21065951|14929824|16608556|35258412"
854416,37.263942,-121.931443,"Camden Community Center","San Jose","9538734|dgvpkdyqmbvb|dgvpkdyqmbfc|dgvpkdyqmbnc|dgvpkdyqnbkb|dgvpkdyqnbsb|dgvpkdyqnbcc|dgvpkdyqnblc|dgvpkdyqpbgb|dgvpkdyqpbpb|dgvpkdyqpbxb|91297912|dgvpkdyqpbhc|dgvpkdyqqbdb|dgvpkdyqqbmb|dgvpkdyqqbvb|95395012|95395062|dgvpkdyqqbnc|97922912|dgvpkdyrcbrb|dgvpkdyrcbbc|dgvpkdyrcbkc|dgvpkdyrdbfb|103518252|dgvpkdyrdbnb|dgvpkdyrdbwb|105152132|dgvpkdyrdbgc|dgvpkdyrfbfb|dgvpkdyrfbnb|12043604|29856361|29997011|35616262|22484691|27392881|33163012|38824512|44579192|47528572|53462912|50160402|58239062|59351482|61728782|64785062|65164452|67006682|76538282|79948242|87474212|102973862"
854835,37.30261,-121.899453,"Willow Glen Public Library","San Jose","14557177"
855275,37.320045,-121.947975,"Left Bank","San Jose","11588967|50161122"
856843,37.308591,-122.031476,"Future Start","San Jose","11608614"
857069,37.330805,-121.893826,"Adobe HQ - San Jose","San Jose","10190694|58499952|62189232|71226132|73875042|75157542|94110102|98085082|98084512|102251262|12087369|12199798|12618866|12808327|13111734|13243529|13243406|14203875|14315268|14502784|15052715|15443596|15052730|15782276|15803756|16420731|16767948|17243915|17495552|55236232|68046622|73835792|75156962|93508462|96071152|13257582|cwvfnynhbbc|cwvfnynkbtb|cwvfnynmbvb|cwvfnynpbxb|cwvfnypcbbc|jfmzpyphbzb|jfmzpypkbcc|cmhmtyppbwb|cmhmtyqcbzb|qsqxkcyqhbwb|qsqxkcyqkbzb|qsqxkcyqmbbc|qsqxkcyqpbtb|qskhzdyrcbwb|qskhzdyrhbvb|qskhzdyrkbxb|qskhzdyrmbzb|20002931|52511512|47759722|73938102|83245322|99554602"
858007,37.301777,-121.94397,"Home ","San Jose","10862853|11063475|10907493|11222857|11222863|11222864|11242514|11619990|11684812|11662319|11913507|12066905|12089206|12095704|12089333|12264426|12670700|12670710|13167074|12670716|13291101|13405533|13423510|13586976|13299328|14009016|14238206|14288371|14683665|14922042|14921893|14978632|15126717|14956579|15126630|15767798|15699677|15081482|15699797|16071666|16114015|16071898|16616542|16379518|16477785|16114146|17552724|17234679|17234724|17234762|28980431|28981281|22608221|38397552|28983051|39225912|52023422|51204542|70526372|68493442|72626632|72630262|82601932|82602982|100198462|11051615|11290154|11222842|11375911|11662576|11597290|10959086|11109699|11684780|11823251|11833620|11424546|12010819|12034496|12009694|12009773|11829890|12108922|12191541|12191571|12010539|12191572|12057857|12191580|12266323|12191583|12196906|12436637|12191586|12525147|12249020|12337084|12196349|12525279|12525237|12979927|12526182|13144063|13100389|13189195|xbclnynhbwb|13189222|12877258|13378173|13654191|13299438|13586687|zqtvnynkbqb|13586403|14020112|13811375|13746324|14301456|14231874|14519263|14601144|14489398|14601184|14611169|14489544|14739617|14999636|14978535|15036040|14956652|15143882|14913204|15143888|15502543|15143902|15168066|15523584|15143974|15699377|15797235|15961718|16167695|16385487|15250695|16175985|16385691|15808789|22661812|28865121|29272941|29218731|29266801|71427232|91330392|39031162"
858355,37.373482,-121.919167,"Dennys","San Jose","71921322"
859376,37.349767,-121.886608,"Joyce Ellington Branch Library","San Jose","11783826|11783855|10960155|11141855|11360422|11619803|11619920"
859388,37.337944,-121.937906,"Morris Dailey Auditorium - San Jose State University","San Jose","11652116|11804604|13096734"
860316,37.254292,-121.831435,"Pete's Family Restaurant","San Jose","9588684|9783937"
861010,37.315902,-121.978513,"Redi Room","San Jose","15318179|45277462"
862293,37.327815,-121.883966,"San Jose Institute of Contemporary Art ","San Jose","9605058|18580551"
862635,37.253787,-121.906063,"Edenvale library San Jose","San Jose","9919042|9417161|9473896|9527405|9575594|9625130"
862821,37.240299,-121.892428,"Vineland Branch Library","San Jose","61502462"
863321,37.300276,-121.949995,"Starbucks","San Jose","94433362"
863406,37.335359,-121.889694,"Koji Sake Lounge","San Jose","14785742|15838231|19067601|34752052|99288782"
865537,37.176447,-121.863548,"Almaden Quicksilver Woods Road Trail","San Jose","9632095|9992534|11159413|15952532|13012985"
866857,37.259327,-121.917341,"Butcher Dog Park","San Jose","14136694"
867646,37.289952,-121.992595,"Mimi's Cafe","San Jose","5212539"
868823,37.334168,-121.889484,"Mezcal","San Jose","43444272|60495672|102429582"
868934,37.27463,-121.85268,"Cha Cha Sushi","San Jose","11955560|12845431|14285818|15211620|77347502"
871325,37.32044,-121.952281,"Winchester 23","San Jose","69366682"
871353,37.335518,-121.89001,"Good Karma Vegan house","San Jose","14105587|47593502|12486565|43772262|44601992"
871952,37.338961,-121.922255,"Center for Spiritual Enlightment","San Jose","11955473|12776317"
876590,37.410858,-121.945649,"Round Table Pizza","San Jose","10999579"
876901,37.257421,-121.876162,"Scramblz Diner","San Jose","16013063"
877815,37.329852,-121.885444,"South First Billiards","San Jose","34077872|vjzvqyphbhb"
878987,37.332149,-121.888045,"Mosaic","San Jose","21902041|22776601|104027582"
880118,37.288395,-121.896736,"Wallenberg Park","San Jose","9758456|9994515|10167955|10461253|10648143|10746129|10902586|10975116|11013393|11019964|11064715|11070350|11130946|11204052|11397720|11467036|11495145|11527572|11527095|11543200|11543332|11578913|11593718|11599791|11646812|11657188|11678239|11688874|11728284|11850626|11865470|11893398|11884258|11924775|11958823|11958921|11988603|11988616|12044950|12057827|12090046|12102110|12102441|12130717|12136517|12146297|12227029|12214586|12251596|12259776|12280384|12284117|12408582|12408593|12457633|12494063|12534486|12561303|12578451|12599749|12599779|12623908|12661753|12682080|12702827|12723027|12754657|12805930|12817392|12828926|12842402|12857069|12857071|12857072|12889995|12937752|12937765|12937846|12987771|13006367|13037673|13034884|nrlhnyngbhb|13100736|13100740|13132857|13151404|13151496|13151506|13198686|13198758|13237326|13289856|13289953|13289979|13336639|13336655|13336664|13357721|13423377|13423387|13423393|13489282|13519555|13489299|13489313|13565901|13565908|13565922|13637433|13637438|13637440|13707918|13737020|13784467|13784471|13795475|13853383|13878897|13908725|13936364|13948742|14014674|14014683|14064154|14085390|14107828|14131183|14154264|14154293|14159714|14197678|14213671|14227980|14261341|14283830|14283978|14304102|14337898|14375340|14363181|14378185|14411118|14426380|14435574|14437852|14486402|14499908|14499913|14524787|14573622|14573636|14582823|14610564|14643203|14661708|14669431|14669419|14721419|14731884|14744656|14792729|14810046|14816418|14842767|14889872|14889873|14907551|14921653|14961385|14972753|14989944|15001476|15059173|15068452|15074218|15074300|15121564|15121583|15134890|15158922|15222291|tcmspynnbjc|15234432|15256572|15296902|tcmspynpbdb|15321491|15300705|15351425|tcmspynpbmb|15405184|15389188|15442971|tcmspynpbvb|15486751|tcmspynpbfc|15538470|15538482|15571590|15561828|tcmspynpbnc|15561838|15561848|15629585|tcmspynqbkb|15691319|15710084|tcmspynqbsb|zqrzpynqbtb|15743585|zqrzpynqbdc|15792062|15826129|tcmspynqblc|zqrzpynqbmc|15856143|15867006|15890268|tcmspypcbgb|zqrzpypcbhb|15912326|15967708|tcmspypcbpb|zqrzpypcbqb|16045339|16079407|tcmspypcbxb|zqrzpypcbzb|16092170|16120137|16129977|tcmspypcbhc|zqrzpypcbjc|16176529|16202161|16362199|tcmspypdbcb|zqrzpypdbdb|16398765|16463343|tcmspypdblb|zqrzpypdbmb|16493057|16507024|zqrzpypdbvb|16565309|tcmspypdbdc|zqrzpypdbfc|16710816|tcmspypfbcb|16739284|16799102|tcmspypfblb|zqrzpypfbmb|16799110|16899736|tcmspypfbtb|zqrzpypfbvb|16945628|16968074|tcmspypfbdc|zqrzpypfbfc|17023178|tcmspypfbmc|17094742|zqrzpypfbnc|17113157|17161939|17169573|zqrzpypgbjb|17161944|17232810|tcmspypgbqb|17259999|zqrzpypgbrb|17232823|17332721|tcmspypgbzb|17352516|zqrzpypgbbc|17332723|17397592|tcmspypgbjc|17431470|zqrzpypgbkc|17397597|17499050|tcmspyphbfb|17526463|zqrzpyphbgb|17499085|17584954|tcmspyphbnb|zqrzpyphbpb|17819271|17819461|tcmspyphbwb|zqrzpyphbxb|17819311|17819481|tcmspyphbgc|zqrzpyphbhc|17819501|tcmspyphbpc|19572061|zqrzpypjbcb|20392611|20416761|tcmspypjbkb|zqrzpypjblb|21323461|tcmspypjbsb|22271271|22657322|cjmktypjbcc|22097251|pmmktypjbdc|23000421|23544361|cjmktypjblc|pmmktypjbmc|23900991|21479001|cjmktypkbhb|pmmktypkbjb|24579861|25082711|cjmktypkbqb|25403491|pmmktypkbrb|25082941|25738021|cjmktypkbzb|pmmktypkbbc|25738111|26691921|26818481|cjmktypkbjc|26274061|pmmktypkbkc|27239161|27239391|27773651|cjmktyplbdb|pmmktyplbfb|27689941|28570081|cjmktyplbmb|pmmktyplbnb|28570181|29412461|cjmktyplbvb|pmmktyplbwb|29412481|30193431|cjmktyplbfc|pmmktyplbgc|30193461|30426201|pmmktyplbpc|31635892|31737592|31830102|cjmktypmbjb|pmmktypmbkb|31830142|32702162|qpzzbcypmbqb|cjmktypmbrb|pmmktypmbsb|dmfxbcypmbtb|qpzzbcypmbzb|cjmktypmbbc|pmmktypmbcc|dmfxbcypmbdc|qpzzbcypmbjc|cjmktypmbkc|pmmktypmblc|dmfxbcypmbmc|qpzzbcypnbfb|cjmktypnbgb|pmmktypnbhb|dmfxbcypnbjb|36566912|qpzzbcypnbnb|cjmktypnbpb|pmmktypnbqb|dmfxbcypnbrb|qpzzbcypnbwb|cjmktypnbxb|pmmktypnbzb|dmfxbcypnbbc|qpzzbcypnbgc|cjmktypnbhc|pmmktypnbjc|dmfxbcypnbkc|qpzzbcypnbpc|cjmktyppbcb|pmmktyppbdb|dmfxbcyppbfb|39998022|qpzzbcyppbkb|cjmktyppblb|pmmktyppbmb|dmfxbcyppbnb|qpzzbcyppbsb|cjmktyppbtb|pmmktyppbvb|dmfxbcyppbwb|qpzzbcyppbcc|cjmktyppbdc|pmmktyppbfc|qpzzbcyppblc|cjmktyppbmc|qpzzbcypqbhb|cjmktypqbjb|43449332|pmmktypqbkb|dmfxbcypqblb|qpzzbcypqbqb|cjmktypqbrb|pmmktypqbsb|dmfxbcypqbtb|qpzzbcypqbzb|cjmktypqbbc|pmmktypqbcc|dmfxbcypqbdc|qpzzbcypqbjc|cjmktypqbkc|pmmktypqblc|dmfxbcypqbmc|qpzzbcyqcbdb|cjmktyqcbfb|pmmktyqcbgb|dmfxbcyqcbhb|qpzzbcyqcbmb|cjmktyqcbnb|pmmktyqcbpb|dmfxbcyqcbqb|qpzzbcyqcbvb|cjmktyqcbwb|pmmktyqcbxb|qpzzbcyqcbfc|cjmktyqcbgc|pmmktyqcbhc|dmfxbcyqcbjc|qpzzbcyqcbnc|cjmktyqcbpc|pmmktyqdbcb|dmfxbcyqdbdb|qpzzbcyqdbjb|cjmktyqdbkb|pmmktyqdblb|dmfxbcyqdbmb|cjmktyqdbsb|pmmktyqdbtb|dmfxbcyqdbvb|qpzzbcyqdbbc|cjmktyqdbcc|pmmktyqdbdc|dmfxbcyqdbfc|cjmktyqdblc|pmmktyqdbmc|dmfxbcyqfbcb|qpzzbcyqfbhb|cjmktyqfbjb|pmmktyqfbkb|dmfxbcyqfblb|55615362|qpzzbcyqfbqb|cjmktyqfbrb|pmmktyqfbsb|qpzzbcyqfbzb|cjmktyqfbbc|pmmktyqfbcc|dmfxbcyqfbdc|cjmktyqfbkc|pmmktyqfblc|dmfxbcyqfbmc|qpzzbcyqgbdb|cjmktyqgbfb|pmmktyqgbgb|dmfxbcyqgbhb|qpzzbcyqgbmb|cjmktyqgbnb|pmmktyqgbpb|dmfxbcyqgbqb|qpzzbcyqgbvb|cjmktyqgbwb|pmmktyqgbxb|dmfxbcyqgbzb|cjmktyqgbgc|pmmktyqgbhc|62298972|qpzzbcyqgbnc|cjmktyqhbcb|pmmktyqhbdb|dmfxbcyqhbfb|qpzzbcyqhbkb|cjmktyqhblb|pmmktyqhbmb|dmfxbcyqhbnb|qpzzbcyqhbsb|cjmktyqhbtb|pmmktyqhbvb|dmfxbcyqhbwb|qpzzbcyqhbcc|cjmktyqhbdc|pmmktyqhbfc|dmfxbcyqhbgc|qpzzbcyqhblc|cjmktyqhbmc|pmmktyqhbnc|dmfxbcyqhbpc|qpzzbcyqjbgb|cjmktyqjbhb|pmmktyqjbjb|dmfxbcyqjbkb|qpzzbcyqjbpb|cjmktyqjbqb|pmmktyqjbrb|dmfxbcyqjbsb|qpzzbcyqjbxb|cjmktyqjbzb|pmmktyqjbbc|dmfxbcyqjbcc|qpzzbcyqjbhc|cjmktyqjbjc|pmmktyqjbkc|qpzzbcyqkbdb|cjmktyqkbfb|pmmktyqkbgb|dmfxbcyqkbhb|qpzzbcyqkbmb|cjmktyqkbnb|pmmktyqkbpb|dmfxbcyqkbqb|qpzzbcyqkbvb|cjmktyqkbwb|pmmktyqkbxb|dmfxbcyqkbzb|qpzzbcyqkbfc|cjmktyqkbgc|pmmktyqkbhc|dmfxbcyqkbjc|qpzzbcyqkbnc|cjmktyqkbpc|pmmktyqlbcb|dmfxbcyqlbdb|qpzzbcyqlbjb|cjmktyqlbkb|pmmktyqlblb|dmfxbcyqlbmb|qpzzbcyqlbrb|cjmktyqlbsb|pmmktyqlbtb|dmfxbcyqlbvb|qpzzbcyqlbbc|pmmktyqlbdc|dmfxbcyqlbfc|qpzzbcyqlbkc|cjmktyqlblc|pmmktyqlbmc|dmfxbcyqlbnc|qpzzbcyqmbfb|cjmktyqmbgb|pmmktyqmbhb|dmfxbcyqmbjb|qpzzbcyqmbnb|cjmktyqmbpb|pmmktyqmbqb|dmfxbcyqmbrb|qpzzbcyqmbwb|cjmktyqmbxb|pmmktyqmbzb|dmfxbcyqmbbc|qpzzbcyqmbgc|cjmktyqmbhc|pmmktyqmbjc|dmfxbcyqmbkc|qpzzbcyqnbcb|cjmktyqnbdb|pmmktyqnbfb|dmfxbcyqnbgb|qpzzbcyqnblb|cjmktyqnbmb|pmmktyqnbnb|dmfxbcyqnbpb|86034222|qpzzbcyqnbtb|cjmktyqnbvb|pmmktyqnbwb|dmfxbcyqnbxb|87589132|qpzzbcyqnbdc|cjmktyqnbfc|pmmktyqnbgc|dmfxbcyqnbhc|qhrprdyqnbjc|qpzzbcyqnbmc|cjmktyqnbnc|pmmktyqnbpc|dmfxbcyqpbcb|drmrrdyqpbdb|qpzzbcyqpbhb|cjmktyqpbjb|pmmktyqpbkb|dmfxbcyqpblb|qtmrrdyqpbmb|qpzzbcyqpbqb|cjmktyqpbrb|pmmktyqpbsb|dmfxbcyqpbtb|qtmrrdyqpbvb|qpzzbcyqpbzb|cjmktyqpbbc|dmfxbcyqpbdc|qtmrrdyqpbfc|qpzzbcyqpbjc|cjmktyqpbkc|pmmktyqpblc|dmfxbcyqpbmc|qpzzbcyqqbfb|cjmktyqqbgb|pmmktyqqbhb|dmfxbcyqqbjb|qtmrrdyqqbkb|qpzzbcyqqbnb|cjmktyqqbpb|pmmktyqqbqb|dmfxbcyqqbrb|qtmrrdyqqbsb|qpzzbcyqqbwb|cjmktyqqbxb|pmmktyqqbzb|dmfxbcyqqbbc|qpzzbcyqqbgc|cjmktyqqbhc|pmmktyqqbjc|dmfxbcyqqbkc|qtmrrdyqqblc|qpzzbcyqqbpc|cjmktyrcbcb|pmmktyrcbdb|dmfxbcyrcbfb|qtmrrdyrcbgb|qpzzbcyrcbkb|cjmktyrcblb|pmmktyrcbmb|dmfxbcyrcbnb|qtmrrdyrcbpb|qpzzbcyrcbsb|cjmktyrcbtb|pmmktyrcbvb|dmfxbcyrcbwb|qpzzbcyrcbcc|cjmktyrcbdc|pmmktyrcbfc|dmfxbcyrcbgc|qpzzbcyrcblc|cjmktyrcbmc|pmmktyrcbnc|dmfxbcyrcbpc|qpzzbcyrdbgb|cjmktyrdbhb|pmmktyrdbjb|dmfxbcyrdbkb|qtmrrdyrdblb|cjmktyrdbqb|pmmktyrdbrb|dmfxbcyrdbsb|qtmrrdyrdbtb|qpzzbcyrdbxb|cjmktyrdbzb|pmmktyrdbbc|dmfxbcyrdbcc|qtmrrdyrdbdc|qpzzbcyrdbhc|cjmktyrdbjc|pmmktyrdbkc|dmfxbcyrdblc|12186787|84012372|wgzwnynkbpb|knrjpynmbhb|knrjpynmbqb|knrjpynmbzb|knrjpynmbjc|knrjpynnbfb|knrjpynnbnb|knrjpynnbpc|tvvvpynpbsb|tvvvpynpbcc|tvvvpynpblc|tvvvpypcbvb|tvvvpypdbbc|tvvvpypfbjb|tvvvpypgbfb|tvvvpypgbwb|tvvvpyphbdc|cpmjsyphbmc|cqmjsypjbhb|cqmjsypjbqb|cqmjsypkbfb"
882037,37.270689,-121.905773,"Blue Rock BBQ","San Jose","13870048"
882954,37.263426,-121.852173,"Vista Park","San Jose","84298062"
883652,37.251187,-121.832952,"San Jose Pizza (Taj Palace)","San Jose","9782361"
884947,37.328044,-121.894243,"Discovery Oak Meadow","San Jose","11891525"
885029,37.262359,-121.918046,"Dance Blvd","San Jose","10965637|11146042|11322834|26167611|26483721|26972841|14403611|60041742"
885886,37.393384,-121.916999,"MVP Arena","San Jose","vtvbpynqbqb|nzlzpynqbzb|nzlzpynqbjc|nzlzpypcbdb|nzlzpypcbmb|nzlzpypcbvb|nzlzpypcbfc|wcqhqypcbjc|nzlzpypcbnc|wcqhqypdbdb|nzlzpypdbjb|wcqhqypdbmb|wcqhqypdbvb|nzlzpypdbbc|wcqhqypdbfc|nzlzpypdbkc|wcqhqypfbdb|nzlzpypfbjb|wcqhqypfbmb"
886156,37.261334,-121.923893,"Cambrian Yoga Studio","San Jose","9808945"
887001,37.335205,-121.889893,"A Perfect Finish","San Jose","6522671|6639830|7564559|13823226|25906341|49131402|15392761|51634322|64653202|dddspcyqhbjc"
888851,37.258355,-121.85277,"Gunderson High School","San Jose","10352272|11225290|11282018|11348161"
889271,37.18899,-121.844875,"Maria's Home ","San Jose","11845536"
890628,37.192547,-121.707559,"Coyote Creek Golf Club","San Jose","86560072"
891046,37.329241,-121.886312,"San Jose Convention Center","San Jose","9852009"
891091,37.348363,-121.911642,"Discovery Meadow","San Jose","60176222|65131172|15057390"
891362,37.333934,-121.888182,"Tandoori Oven","San Jose","15484760|15743367|16613262|16613250|17342335|48003672|48004572|81093062|86494182"
892455,37.331253,-121.908175,"Crema Coffee Roasting Company","San Jose","14629821|84672922|6845461|7028716|7868504|8542074|20586361|52772632"
894776,37.175444,-121.863729,"Sierra Azul OSP","San Jose","11994094|33592242|44308712|68555052|95375282"
896036,37.341187,-121.909082,"Sweet Tomatoes - San Jose Downtown","San Jose","13797908"
896313,37.336089,-121.89361,"Old Spaghetti Factory","San Jose","17029765|34749142|81509002|73140662"
897169,37.353149,-121.891687,"BAGI","San Jose","9903320"
898194,37.203997,-121.863218,"Almaden Quicksilver County Park - Webb Canyon Entrance","San Jose","48396752|74898112"
898602,37.247038,-121.867621,"Almaden Lake Park - East side","San Jose","9950913|10076148|10111361|10281865|11324018|11351698|11613565|11722831|11781695|12680656|12729629|12824659|13165489|13444803|16206899|56879972|10834338|11018653|11499170|11770764|11895276|12119838|12474420|12685772|slzfpynpbjb|16070397"
899729,37.871328,-122.258497,"San Jose Convention Center","San Jose","9966117"
900025,37.322543,-121.932791,"Alex's 49er Inn","San Jose","16622575|22507691|54103822"
902452,37.251886,-121.827905,"San Jose Skate","San Jose","10789413|15751878|12269537"
902760,37.398543,-121.88433,"Dave's Condo","San Jose","12128262"
906932,37.316319,-121.929831,"Cesar E. Chavez Library","San Jose","9905285"
907626,37.334511,-121.891347,"IRS Offices","San Jose","10155970"
907628,37.303842,-121.897833,"Grapevine","San Jose","14408486|14445237"
907829,37.372572,-121.878636,"Berryessa Flea Market","San Jose","9988435"
908068,37.33171,-122.030774,"Conference Line","San Jose","9990379"
908541,37.289951,-121.992877,"Le Boulanger Bakery & Cafe","San Jose","9994461"
908589,37.337944,-121.937906,"SJSU Engineering Building","San Jose","14838370"
912985,37.335352,-121.896861,"Los Cubanos Restaurant","San Jose","12348977|15131662"
914438,37.316301,-121.875021,"Sacred Heart Community Service","San Jose","12082061|10043304|10335706|21976481|10585799|11829771|12313682|12436788|12722924|13114322|13374175|13824639|14177935|15144012|15249130|16904678|44975222"
914546,37.2582,-121.943022,"Houge Park ","San Jose","qbbmnyngbdc"
916307,37.132652,-121.792075,"Rancho Caada del Oro OSP","San Jose","10059999|10282824|11787138|11970595|12368561|15802048|15952376|13220435|13641437|14300822|17197706|66146982"
917659,37.325022,-121.876503,"The Citadel Arts Building","San Jose","10072077"
920189,37.28995,-121.992788,"Peet's Coffee & Tea","San Jose","102629112"
920402,37.323705,-121.86375,"Japanese Friendship Garden","San Jose","13756393"
922134,37.348597,-121.882954,"San Carlos Plaza at SJ State","San Jose","10109360"
926118,37.316229,-121.909876,"Cleantech Institute","San Jose","10141864"
926939,37.335595,-121.893236,"SJ Gudalupe park","San Jose","10147860"
930674,37.332255,-121.890148,"San Jose Fairmont Hotel","San Jose","10663231"
932397,37.336922,-121.714264,"Joseph D. Grant County Park","San Jose","50682822"
933429,37.927152,-122.317875,"Virtual Event","San Jose","50011482"
936948,37.365857,-121.915587,"Sonoma Chicken Coop","San Jose","10345423|10286959|10634038|12883553|56044192|10594463|11109287|12123377|12246895|12875301|12875636|24819661|33879672|15207235|47721642|15499443|16389171|50738272|12864913|13528122|13021233|13528123|23436901|25779991|33756772|49472282|52970962|44968242"
937059,37.394562,-121.819839,"Alum Rock Park","San Jose","12107176|13173440|16385479|17208527|17319857|17429743|19700011|45861122|47293062|60982202|60985842|10906709|10939536|15120654|12408999|12535405|47447872|49373412|16523432|42479562|80095662|101551722|96377982|57438902|76124702|94880732|24645971|82844822|96576562"
941660,37.252621,-121.86173,"Buca di Beppo - Blossom Hill / San Jose","San Jose","99612792"
944859,37.323157,-121.965611,"Soong Soong Restaurant,","San Jose","10290176|12273275|14776838|17381009|98331082"
945000,37.298914,-121.921812,"Blackford Elementary School","San Jose","10291316|10540746|10738002|10588104|11127494|12133175|12165179|12372205|12352967|14153346|mhklqyphbhb|12394098|12361943"
945939,37.254913,-121.903099,"Lynetta Denniston","San Jose","11285443|12434030|12538704|12703241|13651112|13741068|13956576|kpcbpynkbmc|kpcbpynlbqb|kpcbpynlbjc|15072392|kjkqpynnblc|njkqpynpbgb|rjkqpynpbpb|15416753"
946079,37.320284,-121.862471,"San Jose Giants Stadium","San Jose","75268812"
946483,37.336311,-121.884949,"San Jose State University","San Jose","10304349"
947495,37.315777,-121.989239,"John Mise Park","San Jose","13512553|14245360|14609626|15326587|15804136|16089439|16652847|17401402|17417700|17417759|24345881|26163331|47768112"
953376,37.334601,-121.893846,"San Jose Half Marathon Start","San Jose","13673555|85701582"
956428,37.335873,-121.89035,"Semantic Seed ","San Jose","15599724|10707453|10707461|10707467|15375013|15601894"
958846,37.414078,-121.874311,"Round Table Pizza","San Jose","10618508|10412024"
959948,37.376377,-121.922745,"PayPal (TownHall Bldg)","San Jose","13177798|29615651|40866832|38000182|13970281"
962897,37.348022,-121.727922,"Lick Observatory","San Jose","10446403|20799671|19354361|73616982|79700102"
964457,37.323435,-121.951854,"Stevens Creek & Winchester","San Jose","12013885|fhnmpynnbkb|fhnmpynnbsb|fhnmpynnbcc"
966837,37.345307,-121.924429,"Rebecca's","San Jose","11438748|11702746|12390843|13887136|13887156|13887177|13887186|13887211"
967534,37.225859,-121.806251,"Ranchero Oasis Sahara","San Jose","11816491"
968078,37.304275,-121.914026,"Starbucks","San Jose","12167941"
970154,37.472112,-122.209163,"SoFA District","San Jose","65145002"
970162,37.472112,-122.209163,"Downtown San Jose: SoFA District","San Jose","50019872"
970183,37.334579,-121.891398,"Downtown San Jose: Historic District ","San Jose","10508447|14285670|65768892|74332322"
970191,37.344804,-121.900673,"Downtown San Jose","San Jose","10508494"
970210,37.328584,-121.8849,"Downtown San Jose: SoFA District","San Jose","10508277"
971048,37.322201,-121.986627,"Sharon Wolpert's Home","San Jose","11611260"
972200,37.432297,-121.953189,"San Jose/Santa Clara Water Pollution Control Plant","San Jose","14755261|14273791|27875841"
974181,37.321762,-121.979163,"ActionCOACH Office","San Jose","10146480|10680003|10718428|10718446|10937005|10718492|11321330|10718515|11321367|10718528|11321378|10718539|11774557|11745292|11745325|11853578|11853589|12053743|12384966|12512091|12512293|12774763|12774851|13048583|ctdmnyngbkc|ctdmnynjbdc|13757405|ctdmnynmbfc|swpznynnbkb|dwfmpynnbcc|swpznynpbgb|zspspynpbpb|nwfmpynpbhc|zspspynpbxb|swpznynqbdb|zspspynqbdb|zspspynqbmb|nwfmpynqbvb|zspspynqbfc|zspspynqbnc|zspspypcbjb|15172627|zspspypcbbc|15172824|15172912|15833040|16650113|10718731|tfzrnynjblb|tfzrnynjbdc|tfzrnynkbbc|tfzrnynlbfb|tfzrnynnbqb|tfzrnynnbjc|tfzrnynpbfc|tfzrnynqbkb|tfzrnynqbcc|tfzrnypcbgb|tfzrnypcbxb|tfzrnypdbcb|tfzrnypdbtb|tfzrnypfbcb|60467132|63461862|dfxjcdyqkbqb|dfxjcdyqkbjc|dfxjcdyqlbmb|dfxjcdyqlbfc|drpzkdyqmbrb|drpzkdyqmbkc|drpzkdyqnbpb|drpzkdyqnbhc|drpzkdyqpblb"
974389,37.317734,-121.949455,"Chevy's Fresh Mex","San Jose","14868724|16694449|15142386"
974884,37.332339,-121.889237,"Music in the Park-Plaza de Cesar Chavez","San Jose","13905607|20738101|21282111|14224504|14224613|17045053|10551396|24780031"
975670,37.330914,-121.887114,"The Blue Chip","San Jose","24116011|82680342"
977272,37.332339,-121.889237,"Cesar Chavez Plaza ","San Jose","11807170"
